$GNTXT,01,01,02,u-blox AG - www.u-blox.com*4E

$GNTXT,01,01,02,HW UBX-M8130 00080000*61

$GNTXT,01,01,02,ROM CORE 3.01 (107888)*2B

$GNTXT,01,01,02,FWVER=SPG 3.01*46

$GNTXT,01,01,02,PROTVER=18.00*11

$GNTXT,01,01,02,GPS;GLO;BDS*06

$GNTXT,01,01,02,QZSS*58

$GNTXT,01,01,02,GNSS OTP=GPS;BDS*26

$GNTXT,01,01,02,LLC=FFFFFFFF-FFFFFFFF-FFFFFFFF-FFFFFFFF-FFFFFFFD*2F

$GNTXT,01,01,02,ANTSUPERV=AC SD PDoS SR*3E

$GNTXT,01,01,02,ANTSTATUS=OK*25

$GNTXT,01,01,02,PF=3FF*4B

$GNRMC,103205.00,A,5550.94406,N,03732.61369,E,0.180,,180425,,,A*6C

$GNVTG,,T,,M,0.180,N,0.334,K,A*30

$GNGGA,103205.00,5550.94406,N,03732.61369,E,1,04,5.31,169.2,M,13.3,M,,*4D

$GNGSA,A,3,29,18,26,05,,,,,,,,,13.59,5.31,12.51*11

$GPGSV,3,1,11,01,,,27,05,43,067,31,06,,,23,07,,,14*4B

$GPGSV,3,2,11,08,,,17,09,,,18,10,,,17,12,,,20*70

$GPGSV,3,3,11,18,69,223,35,26,49,271,39,29,54,112,35*43

$GNGLL,5550.94406,N,03732.61369,E,103205.00,A,A*76

$GNRMC,103206.00,A,5550.94340,N,03732.61354,E,0.158,,180425,,,A*61

$GNVTG,,T,,M,0.158,N,0.293,K,A*39

$GNGGA,103206.00,5550.94340,N,03732.61354,E,1,04,5.30,167.5,M,13.3,M,,*4D

$GNGSA,A,3,29,18,26,05,,,,,,,,,13.57,5.30,12.49*17

$GPGSV,4,1,13,01,,,26,03,,,24,04,,,25,05,43,067,31*4C

$GPGSV,4,2,13,06,,,24,07,,,15,08,,,15,09,,,17*7D

$GPGSV,4,3,13,10,,,17,12,,,18,18,69,223,34,26,49,271,38*75

$GPGSV,4,4,13,29,54,112,33*43

$GNGLL,5550.94340,N,03732.61354,E,103206.00,A,A*7E

$GNRMC,103207.00,A,5550.94290,N,03732.61371,E,0.028,,180425,,,A*6D

$GNVTG,,T,,M,0.028,N,0.051,K,A*33

$GNGGA,103207.00,5550.94290,N,03732.61371,E,1,04,5.30,165.8,M,13.3,M,,*48

$GNGSA,A,3,29,18,26,05,,,,,,,,,13.54,5.30,12.47*1A

$GPGSV,3,1,12,01,,,27,03,,,22,04,,,25,05,43,067,31*4D

$GPGSV,3,2,12,07,,,18,08,,,13,09,,,17,10,,,17*77

$GPGSV,3,3,12,12,,,18,18,69,223,35,26,49,271,38,29,54,112,37*49

$GNGLL,5550.94290,N,03732.61371,E,103207.00,A,A*74

$GNRMC,103208.00,A,5550.94243,N,03732.61386,E,0.025,,180425,,,A*69

$GNVTG,,T,,M,0.025,N,0.046,K,A*38

$GNGGA,103208.00,5550.94243,N,03732.61386,E,1,04,5.29,164.4,M,13.3,M,,*44

$GNGSA,A,3,29,18,26,05,,,,,,,,,13.52,5.29,12.45*16

$GPGSV,4,1,13,01,,,28,03,,,23,04,,,24,05,43,067,24*40

$GPGSV,4,2,13,06,,,23,07,,,28,08,,,17,09,,,19*78

$GPGSV,4,3,13,10,,,16,12,,,20,18,69,223,35,26,49,271,35*73

$GPGSV,4,4,13,29,54,112,37*47

$GNGLL,5550.94243,N,03732.61386,E,103208.00,A,A*7D

$GNRMC,103209.00,A,5550.94219,N,03732.61405,E,0.460,,180425,,,A*6E

$GNVTG,,T,,M,0.460,N,0.852,K,A*30

$GNGGA,103209.00,5550.94219,N,03732.61405,E,1,04,5.28,163.4,M,13.3,M,,*40

$GNGSA,A,3,29,18,26,05,,,,,,,,,13.50,5.28,12.42*12

$GPGSV,3,1,10,01,,,26,03,,,26,04,,,25,05,43,067,24*4E

$GPGSV,3,2,10,09,,,18,10,,,16,12,,,19,18,69,223,35*47

$GPGSV,3,3,10,26,49,271,35,29,54,112,37*7F

$GNGLL,5550.94219,N,03732.61405,E,103209.00,A,A*7F

$GNRMC,103210.00,A,5550.94280,N,03732.61409,E,0.378,,180425,,,A*64

$GNVTG,,T,,M,0.378,N,0.700,K,A*36

$GNGGA,103210.00,5550.94280,N,03732.61409,E,1,04,5.27,164.9,M,13.3,M,,*41

$GNGSA,A,3,29,18,26,05,,,,,,,,,13.48,5.27,12.40*16

$GPGSV,3,1,10,01,,,27,03,,,25,04,,,23,05,43,067,30*4F

$GPGSV,3,2,10,08,,,23,10,,,16,12,,,18,18,69,223,35*4F

$GPGSV,3,3,10,26,49,271,36,29,54,112,36*7D

$GNGLL,5550.94280,N,03732.61409,E,103210.00,A,A*7B

$GNRMC,103211.00,A,5550.94342,N,03732.61416,E,0.256,,180425,,,A*69

$GNVTG,,T,,M,0.256,N,0.475,K,A*3A

$GNGGA,103211.00,5550.94342,N,03732.61416,E,1,04,5.26,166.1,M,13.3,M,,*4A

$GNGSA,A,3,29,18,26,05,,,,,,,,,13.46,5.26,12.38*16

$GPGSV,3,1,10,01,,,26,03,,,24,04,,,30,05,43,067,28*44

$GPGSV,3,2,10,08,,,20,10,,,20,12,,,19,18,69,223,31*4C

$GPGSV,3,3,10,26,49,271,37,29,54,112,32*78

$GNGLL,5550.94342,N,03732.61416,E,103211.00,A,A*7B

$GNRMC,103212.00,A,5550.94403,N,03732.61419,E,0.060,,180425,,,A*60

$GNVTG,,T,,M,0.060,N,0.111,K,A*3A

$GNGGA,103212.00,5550.94403,N,03732.61419,E,1,04,5.26,167.6,M,13.3,M,,*42

$GNGSA,A,3,29,18,26,05,,,,,,,,,13.43,5.26,12.36*1D

$GPGSV,3,1,09,01,,,25,03,,,24,04,,,29,05,43,067,28*47

$GPGSV,3,2,09,08,,,17,12,,,20,18,69,223,33,26,49,271,38*7D

$GPGSV,3,3,09,29,54,112,34*4F

$GNGLL,5550.94403,N,03732.61419,E,103212.00,A,A*75

$GNRMC,103213.00,A,5550.94483,N,03732.61426,E,0.134,,180425,,,A*65

$GNVTG,,T,,M,0.134,N,0.249,K,A*34

$GNGGA,103213.00,5550.94483,N,03732.61426,E,1,04,5.25,169.8,M,13.3,M,,*44

$GNGSA,A,3,29,18,26,05,,,,,,,,,13.41,5.25,12.34*1E

$GPGSV,3,1,09,01,,,23,03,,,24,04,,,28,05,43,067,28*40

$GPGSV,3,2,09,08,,,15,12,,,19,18,69,223,34,26,49,271,38*72

$GPGSV,3,3,09,29,54,112,35*4E

$GNGLL,5550.94483,N,03732.61426,E,103213.00,A,A*70

$GNRMC,103214.00,A,5550.94548,N,03732.61434,E,0.204,,180425,,,A*67

$GNVTG,,T,,M,0.204,N,0.378,K,A*37

$GNGGA,103214.00,5550.94548,N,03732.61434,E,1,04,5.24,171.5,M,13.3,M,,*43

$GNGSA,A,3,29,18,26,05,,,,,,,,,13.39,5.24,12.32*16

$GPGSV,3,1,09,03,,,22,04,,,27,05,43,067,26,08,,,17*49

$GPGSV,3,2,09,12,,,18,15,04,121,,18,69,223,34,26,49,271,38*4D

$GPGSV,3,3,09,29,54,112,36*4D

$GNGLL,5550.94548,N,03732.61434,E,103214.00,A,A*72

$GNRMC,103215.00,A,5550.94609,N,03732.61444,E,0.196,,180425,,,A*6F

$GNVTG,,T,,M,0.196,N,0.363,K,A*35

$GNGGA,103215.00,5550.94609,N,03732.61444,E,1,04,5.23,173.5,M,13.3,M,,*46

$GNGSA,A,3,29,18,26,05,,,,,,,,,13.37,5.23,12.30*1D

$GPGSV,2,1,08,03,,,24,04,,,27,05,43,067,27,08,,,16*4F

$GPGSV,2,2,08,15,04,121,,18,69,223,35,26,49,271,37,29,54,112,36*74

$GNGLL,5550.94609,N,03732.61444,E,103215.00,A,A*72

$GNRMC,103216.00,A,5550.94676,N,03732.61455,E,0.173,,180425,,,A*6F

$GNVTG,,T,,M,0.173,N,0.321,K,A*38

$GNGGA,103216.00,5550.94676,N,03732.61455,E,1,04,3.03,174.9,M,13.3,M,,*42

$GNGSA,A,3,29,18,26,05,,,,,,,,,4.59,3.03,3.45*15

$GPGSV,2,1,08,03,,,25,04,,,27,05,43,067,30,08,,,16*48

$GPGSV,2,2,08,15,04,121,,18,69,223,35,26,49,271,36,29,54,112,36*75

$GNGLL,5550.94676,N,03732.61455,E,103216.00,A,A*79

$GNRMC,103217.00,A,5550.94719,N,03732.61442,E,0.133,,180425,,,A*64

$GNVTG,,T,,M,0.133,N,0.247,K,A*3D

$GNGGA,103217.00,5550.94719,N,03732.61442,E,1,04,3.03,176.2,M,13.3,M,,*44

$GNGSA,A,3,29,18,26,05,,,,,,,,,4.59,3.03,3.45*15

$GPGSV,2,1,06,05,43,067,32,08,,,14,15,04,121,,18,69,223,34*43

$GPGSV,2,2,06,26,49,271,36,29,54,112,36*7A

$GNGLL,5550.94719,N,03732.61442,E,103217.00,A,A*76

$GNRMC,103218.00,A,5550.94765,N,03732.61432,E,0.098,,180425,,,A*67

$GNVTG,,T,,M,0.098,N,0.181,K,A*34

$GNGGA,103218.00,5550.94765,N,03732.61432,E,1,04,3.03,178.0,M,13.3,M,,*4B

$GNGSA,A,3,29,18,26,05,,,,,,,,,4.59,3.03,3.45*15

$GPGSV,2,1,06,05,43,067,32,08,,,15,15,04,121,,18,69,223,36*40

$GPGSV,2,2,06,26,49,271,39,29,54,112,36*75

$GNGLL,5550.94765,N,03732.61432,E,103218.00,A,A*75

$GNRMC,103219.00,A,5550.94761,N,03732.61443,E,0.040,,180425,,,A*61

$GNVTG,,T,,M,0.040,N,0.074,K,A*3A

$GNGGA,103219.00,5550.94761,N,03732.61443,E,1,04,3.03,178.3,M,13.3,M,,*4B

$GNGSA,A,3,29,18,26,05,,,,,,,,,4.59,3.03,3.45*15

$GPGSV,2,1,07,05,43,067,30,06,,,23,08,,,16,15,04,121,*77

$GPGSV,2,2,07,18,69,223,35,26,49,271,38,29,54,112,38*48

$GNGLL,5550.94761,N,03732.61443,E,103219.00,A,A*76

$GNRMC,103220.00,A,5550.94763,N,03732.61435,E,0.124,,180425,,,A*6B

$GNVTG,,T,,M,0.124,N,0.230,K,A*3B

$GNGGA,103220.00,5550.94763,N,03732.61435,E,1,04,3.03,178.7,M,13.3,M,,*46

$GNGSA,A,3,29,18,26,05,,,,,,,,,4.59,3.03,3.45*15

$GPGSV,2,1,07,05,43,067,27,06,,,21,08,,,16,15,04,121,*73

$GPGSV,2,2,07,18,69,223,35,26,49,271,38,29,54,112,37*47

$GNGLL,5550.94763,N,03732.61435,E,103220.00,A,A*7F

$GNRMC,103221.00,A,5550.94731,N,03732.61424,E,0.070,,180425,,,A*6D

$GNVTG,,T,,M,0.070,N,0.130,K,A*38

$GNGGA,103221.00,5550.94731,N,03732.61424,E,1,04,3.03,178.6,M,13.3,M,,*41

$GNGSA,A,3,29,18,26,05,,,,,,,,,4.59,3.03,3.45*15

$GPGSV,2,1,06,05,43,067,26,06,,,19,15,04,121,,18,69,223,36*47

$GPGSV,2,2,06,26,49,271,37,29,54,112,36*7B

$GNGLL,5550.94731,N,03732.61424,E,103221.00,A,A*79

$GNRMC,103222.00,A,5550.94679,N,03732.61397,E,0.056,,180425,,,A*68

$GNVTG,,T,,M,0.056,N,0.103,K,A*3C

$GNGGA,103222.00,5550.94679,N,03732.61397,E,1,04,3.03,177.8,M,13.3,M,,*41

$GNGSA,A,3,29,18,26,05,,,,,,,,,4.59,3.03,3.45*15

$GPGSV,2,1,07,02,,,24,05,43,067,26,06,,,18,15,04,121,*73

$GPGSV,2,2,07,18,69,223,34,26,49,271,37,29,54,112,35*4B

$GNGLL,5550.94679,N,03732.61397,E,103222.00,A,A*78

$GNRMC,103223.00,A,5550.94625,N,03732.61367,E,0.261,,180425,,,A*69

$GNVTG,,T,,M,0.261,N,0.483,K,A*37

$GNGGA,103223.00,5550.94625,N,03732.61367,E,1,04,3.03,177.2,M,13.3,M,,*4C

$GNGSA,A,3,29,18,26,05,,,,,,,,,4.59,3.03,3.45*15

$GPGSV,2,1,08,02,,,22,05,43,067,26,06,,,18,13,,,25*4D

$GPGSV,2,2,08,15,04,121,,18,69,223,34,26,49,271,37,29,54,112,34*77

$GNGLL,5550.94625,N,03732.61367,E,103223.00,A,A*7F

$GNRMC,103224.00,A,5550.94593,N,03732.61354,E,0.199,,180425,,,A*64

$GNVTG,,T,,M,0.199,N,0.369,K,A*30

$GNGGA,103224.00,5550.94593,N,03732.61354,E,1,04,3.03,176.8,M,13.3,M,,*4E

$GNGSA,A,3,29,18,26,05,,,,,,,,,4.59,3.03,3.45*15

$GPGSV,2,1,08,02,,,19,05,43,067,27,06,,,19,13,,,22*42

$GPGSV,2,2,08,15,04,121,,18,69,223,35,26,49,271,37,29,54,112,34*76

$GNGLL,5550.94593,N,03732.61354,E,103224.00,A,A*76

$GNRMC,103225.00,A,5550.94599,N,03732.61342,E,1.104,10.70,180425,,,A*45

$GNVTG,10.70,T,,M,1.104,N,2.044,K,A*13

$GNGGA,103225.00,5550.94599,N,03732.61342,E,1,04,3.03,176.6,M,13.3,M,,*4C

$GNGSA,A,3,29,18,26,05,,,,,,,,,4.59,3.03,3.45*15

$GPGSV,2,1,08,02,,,16,05,43,067,24,06,,,16,13,,,19*49

$GPGSV,2,2,08,15,04,121,,18,70,223,34,26,49,271,37,29,54,112,33*78

$GNGLL,5550.94599,N,03732.61342,E,103225.00,A,A*7A

$GNRMC,103226.00,A,5550.94584,N,03732.61325,E,0.359,,180425,,,A*68

$GNVTG,,T,,M,0.359,N,0.666,K,A*34

$GNGGA,103226.00,5550.94584,N,03732.61325,E,1,04,3.03,176.3,M,13.3,M,,*47

$GNGSA,A,3,29,18,26,05,,,,,,,,,4.59,3.03,3.46*16

$GPGSV,2,1,08,02,,,14,05,43,067,25,06,,,14,13,,,17*46

$GPGSV,2,2,08,15,04,121,,18,70,223,34,26,49,270,36,29,54,112,36*7D

$GNGLL,5550.94584,N,03732.61325,E,103226.00,A,A*74

68

$GNVTG,,T,,M,0.041,N,0.076,K,A*39

$GNGGA,103227.00,5550.94564,N,03732.61331,E,1,04,3.03,176.2,M,13.3,M,,*4C

$GNGSA,A,3,29,18,26,05,,,,,,,,,4.59,3.03,3.46*16

$GNTXT,01,01,01,NMEA unknown msg*46

$GPGSV,3,1,09,02,,,18,05,43,067,27,06,,,13,13,,,18*40

$GPGSV,3,2,09,15,04,121,,16,,,24,18,70,223,35,26,49,270,37*41

$GPGSV,3,3,09,29,54,112,37*4C

$GNGLL,5550.94564,N,03732.61331,E,103227.00,A,A*7E

$GNRMC,103228.00,A,5550.94718,N,03732.61343,E,0.120,,180425,,,A*6D

$GNVTG,,T,,M,0.120,N,0.223,K,A*3D

$GNGGA,103228.00,5550.94718,N,03732.61343,E,1,04,3.03,179.3,M,13.3,M,,*41

$GNGSA,A,3,29,18,26,05,,,,,,,,,4.59,3.03,3.46*16

$GPGSV,3,1,10,02,,,20,05,43,067,36,06,,,13,13,,,18*43

$GPGSV,3,2,10,14,,,26,15,04,121,,16,,,20,18,70,223,35*74

$GPGSV,3,3,10,26,49,270,37,29,54,112,36*7D

$GNGLL,5550.94718,N,03732.61343,E,103228.00,A,A*7D

$GNRMC,103229.00,A,5550.94802,N,03732.61370,E,0.117,,180425,,,A*6C

$GNVTG,,T,,M,0.117,N,0.216,K,A*3F

$GNGGA,103229.00,5550.94802,N,03732.61370,E,1,04,3.03,180.8,M,13.3,M,,*49

$GNGSA,A,3,29,18,26,05,,,,,,,,,4.59,3.03,3.46*16

$GPGSV,3,1,10,02,,,19,05,43,067,33,06,,,12,13,,,16*43

$GPGSV,3,2,10,14,,,22,15,04,121,,16,,,17,18,70,223,35*74

$GPGSV,3,3,10,26,49,270,37,29,54,112,33*78

$GNGLL,5550.94802,N,03732.61370,E,103229.00,A,A*78

$GNRMC,103230.00,A,5550.94907,N,03732.61401,E,0.076,,180425,,,A*67

$GNVTG,,T,,M,0.076,N,0.142,K,A*3B

$GNGGA,103230.00,5550.94907,N,03732.61401,E,1,04,3.03,182.8,M,13.3,M,,*46

$GNGSA,A,3,29,18,26,05,,,,,,,,,4.59,3.03,3.46*16

$GPGSV,3,1,10,02,,,17,05,43,067,33,13,,,14,14,,,19*47

$GPGSV,3,2,10,15,04,121,,16,,,13,18,70,223,35,19,,,24*7B

$GPGSV,3,3,10,26,49,270,37,29,54,112,36*7D

$GNGLL,5550.94907,N,03732.61401,E,103230.00,A,A*75

$GNRMC,103231.00,A,5550.94976,N,03732.61438,E,0.039,,180425,,,A*61

$GNVTG,,T,,M,0.039,N,0.071,K,A*31

$GNGGA,103231.00,5550.94976,N,03732.61438,E,1,04,3.02,184.1,M,13.3,M,,*45

$GNGSA,A,3,29,18,26,05,,,,,,,,,4.59,3.02,3.46*17

$GPGSV,3,1,10,02,,,18,05,43,067,32,13,,,11,14,,,19*4C

$GPGSV,3,2,10,15,04,121,,16,,,11,18,70,223,34,19,,,21*7D

$GPGSV,3,3,10,26,49,270,37,29,54,112,37*7C

$GNGLL,5550.94976,N,03732.61438,E,103231.00,A,A*78

$GNRMC,103232.00,A,5550.95025,N,03732.61457,E,0.075,,180425,,,A*6D

$GNVTG,,T,,M,0.075,N,0.138,K,A*35

$GNGGA,103232.00,5550.95025,N,03732.61457,E,1,04,3.02,185.2,M,13.3,M,,*43

$GNGSA,A,3,29,18,26,05,,,,,,,,,4.59,3.02,3.46*17

$GPGSV,3,1,10,02,,,19,05,43,067,32,13,,,10,14,,,18*4D

$GPGSV,3,2,10,15,04,121,,16,,,09,18,70,223,35,19,,,19*7E

$GPGSV,3,3,10,26,49,270,36,29,54,112,37*7D

$GNGLL,5550.95025,N,03732.61457,E,103232.00,A,A*7C

$GNRMC,103233.00,A,5550.95058,N,03732.61429,E,0.034,,180425,,,A*6A

$GNVTG,,T,,M,0.034,N,0.063,K,A*3F

$GNGGA,103233.00,5550.95058,N,03732.61429,E,1,04,3.02,186.1,M,13.3,M,,*41

$GNGSA,A,3,29,18,26,05,,,,,,,,,4.59,3.02,3.46*17

$GPGSV,3,1,09,05,43,067,33,13,,,12,14,,,15,15,04,121,*73

$GPGSV,3,2,09,16,,,10,18,70,223,35,19,,,25,26,49,270,35*79

$GPGSV,3,3,09,29,54,112,33*48

$GNGLL,5550.95058,N,03732.61429,E,103233.00,A,A*7E

$GNRMC,103234.00,A,5550.95105,N,03732.61458,E,0.016,,180425,,,A*62

$GNVTG,,T,,M,0.016,N,0.030,K,A*39

$GNGGA,103234.00,5550.95105,N,03732.61458,E,1,04,3.02,187.0,M,13.3,M,,*49

$GNGSA,A,3,29,18,26,05,,,,,,,,,4.59,3.02,3.46*17

$GPGSV,2,1,07,05,43,067,34,14,,,15,15,04,121,,16,,,10*7C

$GPGSV,2,2,07,18,70,223,35,26,49,270,36,29,54,112,37*40

$GNGLL,5550.95105,N,03732.61458,E,103234.00,A,A*76

$GNRMC,103235.00,A,5550.95145,N,03732.61448,E,0.018,,180425,,,A*68

$GNVTG,,T,,M,0.018,N,0.033,K,A*34

$GNGGA,103235.00,5550.95145,N,03732.61448,E,1,04,3.02,188.0,M,13.3,M,,*42

$GNGSA,A,3,29,18,26,05,,,,,,,,,4.59,3.02,3.46*17

$GPGSV,3,1,09,05,43,067,33,14,,,16,15,04,121,,16,,,10*77

$GPGSV,3,2,09,18,70,223,35,21,,,19,22,,,25,26,49,270,36*7F

$GPGSV,3,3,09,29,54,112,37*4C

$GNGLL,5550.95145,N,03732.61448,E,103235.00,A,A*72

$GNRMC,103236.00,A,5550.95157,N,03732.61417,E,0.163,,180425,,,A*6F

$GNVTG,,T,,M,0.163,N,0.302,K,A*38

$GNGGA,103236.00,5550.95157,N,03732.61417,E,1,04,3.02,188.4,M,13.3,M,,*4C

$GNGSA,A,3,29,18,26,05,,,,,,,,,4.59,3.02,3.46*17

$GPGSV,3,1,10,05,43,067,27,14,,,15,15,04,121,,16,,,17*7E

$GPGSV,3,2,10,18,70,223,34,21,,,18,22,,,22,23,,,26*4C

$GPGSV,3,3,10,26,49,270,37,29,54,112,34*7F

$GNGLL,5550.95157,N,03732.61417,E,103236.00,A,A*78

$GNRMC,103237.00,A,5550.95194,N,03732.61435,E,0.521,,180425,,,A*63

$GNVTG,,T,,M,0.521,N,0.964,K,A*30

$GNGGA,103237.00,5550.95194,N,03732.61435,E,1,04,3.02,188.9,M,13.3,M,,*4F

$GNGSA,A,3,29,18,26,05,,,,,,,,,4.59,3.02,3.46*17

$GPGSV,3,1,12,02,,,26,05,43,067,26,14,,,13,15,04,121,*7C

$GPGSV,3,2,12,16,,,18,18,70,223,35,19,,,23,21,,,17*42

$GPGSV,3,3,12,22,,,20,23,,,24,26,49,270,36,29,54,112,35*78

$GNGLL,5550.95194,N,03732.61435,E,103237.00,A,A*76

$GNRMC,103238.00,A,5550.95213,N,03732.61423,E,0.145,,180425,,,A*61

$GNVTG,,T,,M,0.145,N,0.268,K,A*31

$GNGGA,103238.00,5550.95213,N,03732.61423,E,1,04,3.02,189.6,M,13.3,M,,*45

$GNGSA,A,3,29,18,26,05,,,,,,,,,4.59,3.02,3.46*17

$GPGSV,3,1,12,02,,,23,05,43,066,27,14,,,14,15,04,121,*7E

$GPGSV,3,2,12,16,,,25,18,70,223,35,19,,,20,21,,,16*4E

$GPGSV,3,3,12,22,,,18,23,,,22,26,49,270,36,29,54,112,34*74

$GNGLL,5550.95213,N,03732.61423,E,103238.00,A,A*72

$GNRMC,103239.00,A,5550.95259,N,03732.61419,E,0.258,,180425,,,A*68

$GNVTG,,T,,M,0.258,N,0.479,K,A*38

$GNGGA,103239.00,5550.95259,N,03732.61419,E,1,04,3.02,190.3,M,13.3,M,,*4E

$GNGSA,A,3,29,18,26,05,,,,,,,,,4.59,3.02,3.46*17

$GPGSV,3,1,11,02,,,19,05,43,066,28,15,04,121,,16,,,22*7C

$GPGSV,3,2,11,18,70,223,37,19,,,18,21,,,14,22,,,17*40

$GPGSV,3,3,11,23,,,21,26,49,270,36,29,54,112,33*7A

$GNGLL,5550.95259,N,03732.61419,E,103239.00,A,A*74

$GNRMC,103240.00,A,5550.95287,N,03732.61433,E,0.187,,180425,,,A*6C

$GNVTG,,T,,M,0.187,N,0.347,K,A*33

$GNGGA,103240.00,5550.95287,N,03732.61433,E,1,04,3.02,190.5,M,13.3,M,,*4D

$GNGSA,A,3,29,18,26,05,,,,,,,,,4.59,3.02,3.46*17

$GPGSV,3,1,11,02,,,18,05,43,066,26,15,04,121,,16,,,21*70

$GPGSV,3,2,11,18,70,223,37,19,,,16,21,,,14,22,,,16*4F

$GPGSV,3,3,11,23,,,21,26,49,270,36,29,54,112,36*7F

$GNGLL,5550.95287,N,03732.61433,E,103240.00,A,A*71

$GNRMC,103241.00,A,5550.95313,N,03732.61428,E,0.265,,180425,,,A*64

$GNVTG,,T,,M,0.265,N,0.491,K,A*30

$GNGGA,103241.00,5550.95313,N,03732.61428,E,1,04,3.02,191.0,M,13.3,M,,*4E

$GNGSA,A,3,29,18,26,05,,,,,,,,,4.59,3.02,3.46*17

$GPGSV,3,1,11,02,,,20,05,43,066,25,15,04,121,,16,,,21*78

$GPGSV,3,2,11,18,70,223,37,19,,,15,21,,,14,22,,,13*49

$GPGSV,3,3,11,23,,,20,26,49,270,36,29,54,112,36*7E

$GNGLL,5550.95313,N,03732.61428,E,103241.00,A,A*76

$GNRMC,103242.00,A,5550.95318,N,03732.61422,E,0.042,,180425,,,A*61

$GNVTG,,T,,M,0.042,N,0.077,K,A*3B

$GNGGA,103242.00,5550.95318,N,03732.61422,E,1,04,3.02,191.0,M,13.3,M,,*4C

$GNGSA,A,3,29,18,26,05,,,,,,,,,4.59,3.02,3.46*17

$GPGSV,3,1,12,02,,,18,05,43,066,31,14,,,07,15,04,121,*73

$GPGSV,3,2,12,16,,,19,18,70,223,36,19,,,16,21,,,17*46

$GPGSV,3,3,12,22,,,13,23,,,20,26,49,270,38,29,54,112,36*71

$GNGLL,5550.95318,N,03732.61422,E,103242.00,A,A*74

$GNTXT,01,01,01,NMEA unknown msg*46

$GNRMC,103243.00,A,5550.95298,N,03732.61438,E,0.122,,180425,,,A*65

$GNVTG,,T,,M,0.122,N,0.226,K,A*3A

$GNGGA,103243.00,5550.95298,N,03732.61438,E,1,04,3.02,190.7,M,13.3,M,,*49

$GNGSA,A,3,29,18,26,05,,,,,,,,,4.59,3.02,3.46*17

$GPGSV,3,1,12,02,,,20,05,43,066,32,14,,,10,15,04,121,*7D

$GPGSV,3,2,12,16,,,20,18,70,223,34,19,,,15,21,,,16*4C

$GPGSV,3,3,12,22,,,14,23,,,20,26,49,270,38,29,54,112,36*76

$GNGLL,5550.95298,N,03732.61438,E,103243.00,A,A*77

$GNRMC,103244.00,A,5550.95307,N,03732.61441,E,0.056,,180425,,,A*69

$GNVTG,,T,,M,0.056,N,0.104,K,A*3B

$GNGGA,103244.00,5550.95307,N,03732.61441,E,1,04,3.02,191.2,M,13.3,M,,*43

$GNGSA,A,3,29,18,26,05,,,,,,,,,4.59,3.02,3.46*17

$GPGSV,3,1,12,02,,,21,05,43,066,30,14,,,13,15,04,121,*7D

$GPGSV,3,2,12,16,36,304,19,18,70,223,37,19,,,16,21,,,14*76

$GPGSV,3,3,12,22,,,14,23,,,23,26,49,270,38,29,54,112,33*70

$GNGLL,5550.95307,N,03732.61441,E,103244.00,A,A*79

$GNRMC,103245.00,A,5550.95300,N,03732.61440,E,0.221,,180425,,,A*6C

$GNVTG,,T,,M,0.221,N,0.410,K,A*39

$GNGGA,103245.00,5550.95300,N,03732.61440,E,1,04,3.02,191.2,M,13.3,M,,*44

$GNGSA,A,3,29,18,26,05,,,,,,,,,4.59,3.02,3.46*17

$GPGSV,3,1,12,02,,,22,05,43,066,30,14,,,13,15,04,121,*7E

$GPGSV,3,2,12,16,36,304,,18,70,223,35,19,,,14,21,,,12*78

$GPGSV,3,3,12,22,,,15,23,,,24,26,49,270,36,29,54,112,35*7E

$GNGLL,5550.95300,N,03732.61440,E,103245.00,A,A*7E

$GNRMC,103246.00,A,5550.95234,N,03732.61399,E,0.049,,180425,,,A*66

$GNVTG,,T,,M,0.049,N,0.090,K,A*39

$GNGGA,103246.00,5550.95234,N,03732.61399,E,1,04,3.00,190.1,M,13.3,M,,*42

$GNGSA,A,3,29,18,26,05,,,,,,,,,4.58,3.00,3.45*17

$GPGSV,3,1,12,02,,,20,05,43,066,35,14,,,18,15,04,121,*72

$GPGSV,3,2,12,16,36,304,25,18,70,223,37,19,,,19,21,,,14*76

$GPGSV,3,3,12,22,,,16,23,,,23,26,49,270,32,29,54,112,39*72

$GNGLL,5550.95234,N,03732.61399,E,103246.00,A,A*78

$GNRMC,103247.00,A,5550.95232,N,03732.61415,E,0.240,,180425,,,A*69

$GNVTG,,T,,M,0.240,N,0.445,K,A*3E

$GNGGA,103247.00,5550.95232,N,03732.61415,E,1,04,3.00,190.0,M,13.3,M,,*47

$GNGSA,A,3,29,18,26,05,,,,,,,,,4.58,3.00,3.45*17

$GPGSV,3,1,10,02,,,21,05,43,066,27,14,,,21,15,04,121,*78

$GPGSV,3,2,10,16,36,304,23,18,70,223,37,20,,,24,23,,,22*71

$GNGLL,5550.95232,N,03732.61415,E,103247.00,A,A*7C

$GNRMC,103248.00,A,5550.95239,N,03732.61414,E,0.070,,180425,,,A*6D

$GNVTG,,T,,M,0.070,N,0.129,K,A*30

$GNGGA,103248.00,5550.95239,N,03732.61414,E,1,04,3.00,190.3,M,13.3,M,,*41

$GNGSA,A,3,29,18,26,05,,,,,,,,,4.58,3.00,3.45*17

$GPGSV,3,1,11,02,,,22,05,43,066,28,14,,,19,15,04,121,*7E

$GPGSV,3,2,11,16,36,304,22,18,70,223,37,19,,,24,20,,,21*7B

$GPGSV,3,3,11,22,,,23,26,49,270,36,29,54,112,35*7F

$GNGLL,5550.95239,N,03732.61414,E,103248.00,A,A*79

$GNRMC,103249.00,A,5550.95208,N,03732.61475,E,0.068,,180425,,,A*60

$GNVTG,,T,,M,0.068,N,0.126,K,A*36

$GNGGA,103249.00,5550.95208,N,03732.61475,E,1,04,3.00,189.5,M,13.3,M,,*4B

$GNGSA,A,3,29,18,26,05,,,,,,,,,4.58,3.00,3.45*17

$GPGSV,3,1,09,02,,,21,05,43,066,29,14,,,18,15,04,121,*74

$GPGSV,3,2,09,16,36,304,23,18,70,223,35,20,,,18,26,49,270,40*4D

$GPGSV,3,3,09,29,54,112,35*4E

$GNGLL,5550.95208,N,03732.61475,E,103249.00,A,A*7D

$GNRMC,103250.00,A,5550.95146,N,03732.61494,E,0.171,,180425,,,A*67

$GNVTG,,T,,M,0.171,N,0.316,K,A*3E

$GNGGA,103250.00,5550.95146,N,03732.61494,E,1,04,3.00,188.7,M,13.3,M,,*46

$GNGSA,A,3,29,18,26,05,,,,,,,,,4.58,3.00,3.45*17

$GPGSV,3,1,09,02,,,22,05,43,066,33,14,,,18,15,04,121,*7C

$GPGSV,3,2,09,16,36,304,22,18,70,223,35,20,,,18,26,49,270,39*42

$GPGSV,3,3,09,29,54,112,36*4D

$GNGLL,5550.95146,N,03732.61494,E,103250.00,A,A*73

$GNRMC,103251.00,A,5550.95125,N,03732.61439,E,0.151,,180425,,,A*66

$GNVTG,,T,,M,0.151,N,0.279,K,A*34

$GNGGA,103251.00,5550.95125,N,03732.61439,E,1,04,3.00,189.1,M,13.3,M,,*42

$GNGSA,A,3,29,18,26,05,,,,,,,,,4.58,3.00,3.45*17

$GPGSV,3,1,09,02,,,24,05,43,066,29,14,,,16,15,04,121,*7F

$GPGSV,3,2,09,16,36,304,22,18,70,223,37,20,,,16,26,49,270,36*41

$GPGSV,3,3,09,29,54,112,36*4D

$GNGLL,5550.95125,N,03732.61439,E,103251.00,A,A*70

$GNRMC,103252.00,A,5550.95094,N,03732.61417,E,0.210,,180425,,,A*64

$GNVTG,,T,,M,0.210,N,0.390,K,A*34

$GNGGA,103252.00,5550.95094,N,03732.61417,E,1,04,3.00,188.8,M,13.3,M,,*4E

$GNGSA,A,3,29,18,26,05,,,,,,,,,4.58,3.00,3.45*17

$GPGSV,2,1,08,05,43,066,28,14,,,17,15,04,121,,16,36,304,21*4D

$GPGSV,2,2,08,18,70,223,39,20,,,18,26,49,270,35,29,54,112,37*4B

$GNGLL,5550.95094,N,03732.61417,E,103252.00,A,A*74

$GNRMC,103253.00,A,5550.94993,N,03732.61430,E,0.149,,180425,,,A*60

$GNVTG,,T,,M,0.149,N,0.277,K,A*33

$GNGGA,103253.00,5550.94993,N,03732.61430,E,1,04,3.00,187.2,M,13.3,M,,*40

$GNGSA,A,3,29,18,26,05,,,,,,,,,4.58,3.00,3.45*17

$GPGSV,2,1,07,05,43,066,33,15,04,121,,16,36,304,21,18,70,223,39*7C

$GPGSV,2,2,07,20,,,19,26,49,270,35,29,54,112,37*72

$GNGLL,5550.94993,N,03732.61430,E,103253.00,A,A*7F

$GNRMC,103254.00,A,5550.94835,N,03732.61463,E,0.231,,180425,,,A*60

$GNVTG,,T,,M,0.231,N,0.427,K,A*3C

$GNGGA,103254.00,5550.94835,N,03732.61463,E,1,04,3.00,184.6,M,13.3,M,,*4B

$GNGSA,A,3,29,18,26,05,,,,,,,,,4.58,3.00,3.46*14

$GPGSV,2,1,07,05,43,066,36,15,04,121,,16,36,304,22,18,70,223,38*7B

$GPGSV,2,2,07,20,,,21,26,49,270,32,29,54,112,36*7F

$GNGLL,5550.94835,N,03732.61463,E,103254.00,A,A*73

$GNRMC,103255.00,A,5550.94776,N,03732.61428,E,0.214,,180425,,,A*61

$GNVTG,,T,,M,0.214,N,0.396,K,A*36

$GNGGA,103255.00,5550.94776,N,03732.61428,E,1,04,3.00,183.9,M,13.3,M,,*45

$GNGSA,A,3,29,18,26,05,,,,,,,,,4.58,3.00,3.46*14

$GPGSV,3,1,09,01,,,33,02,,,34,05,43,066,35,15,04,121,*70

$GPGSV,3,2,09,16,36,304,29,18,70,223,38,20,,,22,26,49,270,31*45

$GPGSV,3,3,09,29,54,112,36*4D

$GNGLL,5550.94776,N,03732.61428,E,103255.00,A,A*75

$GNRMC,103256.00,A,5550.94747,N,03732.61423,E,0.282,,180425,,,A*64

$GNVTG,,T,,M,0.282,N,0.523,K,A*31

$GNGGA,103256.00,5550.94747,N,03732.61423,E,1,04,3.00,183.5,M,13.3,M,,*43

$GNGSA,A,3,29,18,26,05,,,,,,,,,4.58,3.00,3.46*14

$GPGSV,3,1,11,01,,,33,02,,,33,03,,,29,05,43,066,32*43

$GPGSV,3,2,11,15,04,121,,16,36,304,27,18,70,223,38,20,,,22*4E

$GPGSV,3,3,11,21,,,33,26,49,270,30,29,54,112,36*78

$GNGLL,5550.94747,N,03732.61423,E,103256.00,A,A*7F

$GNRMC,103257.00,A,5550.94729,N,03732.61402,E,0.315,,180425,,,A*61

$GNVTG,,T,,M,0.315,N,0.583,K,A*34

$GNGGA,103257.00,5550.94729,N,03732.61402,E,1,04,3.00,183.3,M,13.3,M,,*4F

$GNGSA,A,3,29,18,26,05,,,,,,,,,4.58,3.00,3.46*14

$GPGSV,3,1,11,02,,,28,03,,,20,04,,,29,05,43,066,36*4A

$GPGSV,3,2,11,15,04,121,,16,36,304,20,18,70,223,38,20,,,20*4B

$GPGSV,3,3,11,21,,,28,26,49,270,27,29,54,112,35*77

$GNGLL,5550.94729,N,03732.61402,E,103257.00,A,A*75

$GNRMC,103258.00,A,5550.94703,N,03732.61372,E,0.174,,180425,,,A*63

$GNVTG,,T,,M,0.174,N,0.323,K,A*3D

$GNGGA,103258.00,5550.94703,N,03732.61372,E,1,04,3.00,182.1,M,13.3,M,,*4B

$GNGSA,A,3,29,18,26,05,,,,,,,,,4.58,3.00,3.46*14

$GPGSV,3,1,10,02,,,28,03,,,19,04,,,30,05,43,066,35*4A

$GPGSV,3,2,10,15,04,121,,16,36,304,23,18,70,223,40,21,,,27*40

$GPGSV,3,3,10,26,49,270,32,29,54,112,37*79

$GNGLL,5550.94703,N,03732.61372,E,103258.00,A,A*72

$GNRMC,103259.00,A,5550.94716,N,03732.61379,E,0.181,,180425,,,A*67

$GNVTG,,T,,M,0.181,N,0.335,K,A*30

$GNGGA,103259.00,5550.94716,N,03732.61379,E,1,04,3.00,182.1,M,13.3,M,,*45

$GNGSA,A,3,29,18,26,05,,,,,,,,,4.58,3.00,3.46*14

$GPGSV,3,1,12,01,,,27,02,,,29,03,,,17,04,,,30*77

$GPGSV,3,2,12,05,43,066,36,06,,,26,15,04,121,,16,36,304,23*48

$GPGSV,3,3,12,18,70,223,39,21,,,27,26,49,270,26,29,54,112,36*4E

$GNGLL,5550.94716,N,03732.61379,E,103259.00,A,A*7C

$GNRMC,103300.00,A,5550.94719,N,03732.61414,E,0.131,,180425,,,A*62

$GNVTG,,T,,M,0.131,N,0.242,K,A*3A

$GNGGA,103300.00,5550.94719,N,03732.61414,E,1,04,3.00,182.1,M,13.3,M,,*4B

$GNGSA,A,3,29,18,26,05,,,,,,,,,4.58,3.00,3.46*14

$GPGSV,3,1,12,01,,,28,02,,,30,03,,,18,04,,,29*77

$GPGSV,3,2,12,05,43,066,37,06,,,22,15,04,121,,16,36,304,22*4C

$GPGSV,3,3,12,18,70,223,39,21,,,28,26,49,270,28,29,54,112,36*4F

$GNGLL,5550.94719,N,03732.61414,E,103300.00,A,A*72

$GNRMC,103301.00,A,5550.94692,N,03732.61445,E,0.696,,180425,,,A*6F

$GNVTG,,T,,M,0.696,N,1.288,K,A*37

$GNGGA,103301.00,5550.94692,N,03732.61445,E,1,04,3.00,181.6,M,13.3,M,,*48

$GNGSA,A,3,29,18,26,05,,,,,,,,,4.58,3.00,3.46*14

$GPGSV,3,1,12,01,,,32,02,,,30,03,,,20,04,,,33*7C

$GPGSV,3,2,12,05,43,066,27,06,,,20,15,04,121,,16,36,304,23*4E

$GPGSV,3,3,12,18,70,223,36,21,,,29,26,49,270,35,29,54,112,37*4C

$GNGLL,5550.94692,N,03732.61445,E,103301.00,A,A*75

$GNRMC,103302.00,A,5550.94698,N,03732.61335,E,0.237,,180425,,,A*69

$GNVTG,,T,,M,0.237,N,0.438,K,A*34

$GNGGA,103302.00,5550.94698,N,03732.61335,E,1,04,3.00,182.5,M,13.3,M,,*41

$GNGSA,A,3,29,18,26,05,,,,,,,,,4.58,3.00,3.46*14

$GPGSV,4,1,13,01,,,16,02,,,22,03,,,17,04,,,21*78

$GPGSV,4,2,13,05,43,066,32,06,,,18,08,,,23,15,04,121,*7A

$GPGSV,4,3,13,16,36,304,23,18,70,223,36,21,,,20,26,49,270,38*46

$GPGSV,4,4,13,29,54,112,34*44

$GNGLL,5550.94698,N,03732.61335,E,103302.00,A,A*7C

$GNRMC,103303.00,A,5550.94694,N,03732.61344,E,0.162,,180425,,,A*61

$GNVTG,,T,,M,0.162,N,0.301,K,A*3A

$GNGGA,103303.00,5550.94694,N,03732.61344,E,1,04,3.00,182.4,M,13.3,M,,*4B

$GNGSA,A,3,29,18,26,05,,,,,,,,,4.58,3.00,3.46*14

$GPGSV,4,1,13,01,,,22,02,,,29,03,,,17,04,,,30*74

$GPGSV,4,2,13,05,43,066,26,06,,,18,08,,,22,09,,,27*40

$GPGSV,4,3,13,15,04,121,,16,36,304,22,18,70,223,36,26,49,270,37*7B

$GPGSV,4,4,13,29,54,112,38*48

$GNGLL,5550.94694,N,03732.61344,E,103303.00,A,A*77

$GNRMC,103304.00,A,5550.94672,N,03732.61415,E,0.130,,180425,,,A*6A

$GNVTG,,T,,M,0.130,N,0.241,K,A*38

$GNGGA,103304.00,5550.94672,N,03732.61415,E,1,04,3.00,181.6,M,13.3,M,,*46

$GNGSA,A,3,29,18,26,05,,,,,,,,,4.58,3.00,3.46*14

$GPGSV,4,1,13,01,,,29,02,,,30,03,,,19,04,,,34*7D

$GPGSV,4,2,13,05,43,066,28,06,,,19,08,,,21,09,,,26*4D

$GPGSV,4,3,13,15,04,121,,16,36,304,23,18,70,223,36,26,49,270,35*78

$GPGSV,4,4,13,29,54,112,38*48

$GNGLL,5550.94672,N,03732.61415,E,103304.00,A,A*7B

$GNRMC,103305.00,A,5550.94656,N,03732.61403,E,0.169,,180425,,,A*66

$GNVTG,,T,,M,0.169,N,0.314,K,A*35

$GNGGA,103305.00,5550.94656,N,03732.61403,E,1,04,3.00,181.2,M,13.3,M,,*42

$GNGSA,A,3,29,18,26,05,,,,,,,,,4.58,3.00,3.46*14

$GPGSV,4,1,14,01,,,29,02,,,30,03,,,21,04,,,33*76

$GPGSV,4,2,14,05,43,066,27,06,,,19,08,,,20,09,,,23*41

$GPGSV,4,3,14,10,,,32,15,04,121,,16,36,304,23,18,70,223,38*4B

$GPGSV,4,4,14,26,49,270,26,29,54,112,38*77

$GNGLL,5550.94656,N,03732.61403,E,103305.00,A,A*7B

$GNRMC,103306.00,A,5550.94661,N,03732.61411,E,0.137,,180425,,,A*69

$GNVTG,,T,,M,0.137,N,0.253,K,A*3C

$GNGGA,103306.00,5550.94661,N,03732.61411,E,1,04,3.00,180.6,M,13.3,M,,*43

$GNGSA,A,3,29,18,26,05,,,,,,,,,4.58,3.00,3.46*14

$GPGSV,4,1,15,01,,,30,02,,,30,03,,,20,04,,,30*7D

$GPGSV,4,2,15,05,43,066,35,06,,,20,08,,,23,09,,,21*48

$GPGSV,4,3,15,10,,,32,11,,,29,15,04,121,,16,36,304,24*70

$GPGSV,4,4,15,18,70,223,40,26,49,270,33,29,54,112,38*4B

$GNGLL,5550.94661,N,03732.61411,E,103306.00,A,A*7F

$GNRMC,103307.00,A,5550.94575,N,03732.61434,E,0.081,,180425,,,A*65

$GNVTG,,T,,M,0.081,N,0.150,K,A*30

$GNGGA,103307.00,5550.94575,N,03732.61434,E,1,04,3.00,178.6,M,13.3,M,,*44

$GNGSA,A,3,29,18,26,05,,,,,,,,,4.58,3.00,3.46*14

$GPGSV,4,1,14,01,,,29,02,,,30,03,,,29,04,,,31*7C

$GPGSV,4,2,14,05,43,066,38,06,,,19,08,,,24,09,,,20*48

$GPGSV,4,3,14,11,,,21,15,04,121,,16,36,304,23,18,70,223,40*47

$GPGSV,4,4,14,26,49,270,28,29,54,112,38*79

$GNGLL,5550.94575,N,03732.61434,E,103307.00,A,A*7F

$GNRMC,103308.00,A,5550.94531,N,03732.61432,E,0.190,,180425,,,A*6D

$GNVTG,,T,,M,0.190,N,0.352,K,A*31

$GNGGA,103308.00,5550.94531,N,03732.61432,E,1,04,3.00,177.5,M,13.3,M,,*41

$GNGSA,A,3,29,18,26,05,,,,,,,,,4.58,3.00,3.46*14

$GPGSV,4,1,14,01,,,30,02,,,30,03,,,18,05,43,066,37*46

$GPGSV,4,2,14,06,,,19,08,,,21,09,,,17,10,,,28*7B

$GPGSV,4,3,14,11,,,22,15,04,121,,16,36,304,,18,70,223,39*4B

$GPGSV,4,4,14,26,49,270,29,29,54,112,39*79

$GNGLL,5550.94531,N,03732.61432,E,103308.00,A,A*76

$GNRMC,103309.00,A,5550.94542,N,03732.61415,E,0.169,,180425,,,A*6B

$GNVTG,,T,,M,0.169,N,0.313,K,A*32

$GNGGA,103309.00,5550.94542,N,03732.61415,E,1,04,3.00,177.9,M,13.3,M,,*4D

$GNGSA,A,3,29,18,26,05,,,,,,,,,4.58,3.00,3.46*14

$GPGSV,4,1,13,01,,,30,02,,,29,03,,,19,05,43,066,30*4F

$GPGSV,4,2,13,08,,,21,09,,,19,10,,,28,11,,,22*7C

$GPGSV,4,3,13,15,04,121,31,16,36,304,26,18,70,223,39,26,49,270,31*74

$GPGSV,4,4,13,29,54,112,36*46

$GNGLL,5550.94542,N,03732.61415,E,103309.00,A,A*76

$GNRMC,103310.00,A,5550.94562,N,03732.61385,E,0.343,,180425,,,A*65

$GNVTG,,T,,M,0.343,N,0.635,K,A*39

$GNGGA,103310.00,5550.94562,N,03732.61385,E,1,04,3.00,178.3,M,13.3,M,,*4C

$GNGSA,A,3,29,18,26,05,,,,,,,,,4.58,3.00,3.46*14

$GPGSV,4,1,14,01,,,31,02,,,30,03,,,19,05,43,066,31*40

$GPGSV,4,2,14,06,,,24,08,,,21,09,,,20,10,,,29*70

$GPGSV,4,3,14,11,,,21,15,05,121,30,16,36,304,24,18,70,223,39*4C

$GPGSV,4,4,14,26,49,270,31,29,54,112,37*7E

$GNGLL,5550.94562,N,03732.61385,E,103310.00,A,A*72

$GNRMC,103311.00,A,5550.94556,N,03732.61419,E,0.352,,180425,,,A*61

$GNVTG,,T,,M,0.352,N,0.652,K,A*38

$GNGGA,103311.00,5550.94556,N,03732.61419,E,1,04,3.00,178.3,M,13.3,M,,*48

$GNGSA,A,3,29,18,26,05,,,,,,,,,4.58,3.00,3.46*14

$GPGSV,4,1,13,01,,,31,02,,,31,03,,,20,05,43,066,29*45

$GPGSV,4,2,13,08,,,20,09,,,20,10,,,30,11,,,20*7C

$GPGSV,4,3,13,15,05,121,21,16,36,304,21,18,70,223,39,26,49,270,31*73

$GPGSV,4,4,13,29,54,112,37*47

$GNGLL,5550.94556,N,03732.61419,E,103311.00,A,A*76

$GNRMC,103312.00,A,5550.94547,N,03732.61444,E,0.168,,180425,,,A*61

$GNVTG,,T,,M,0.168,N,0.311,K,A*31

$GNGGA,103312.00,5550.94547,N,03732.61444,E,1,04,3.00,178.2,M,13.3,M,,*42

$GNGSA,A,3,29,18,26,05,,,,,,,,,4.58,3.00,3.46*14

$GPGSV,4,1,13,01,,,29,02,,,31,03,,,20,05,43,066,30*44

$GPGSV,4,2,13,08,,,20,09,,,17,10,,,29,11,,,19*7A

$GPGSV,4,3,13,15,05,121,20,16,36,304,21,18,70,223,38,26,49,270,32*70

$GPGSV,4,4,13,29,54,112,38*48

$GNGLL,5550.94547,N,03732.61444,E,103312.00,A,A*7D

$GNRMC,103313.00,A,5550.94540,N,03732.61421,E,0.107,,180425,,,A*6D

$GNVTG,,T,,M,0.107,N,0.198,K,A*3B

$GNGGA,103313.00,5550.94540,N,03732.61421,E,1,04,3.00,178.4,M,13.3,M,,*41

$GNGSA,A,3,29,18,26,05,,,,,,,,,4.58,3.00,3.46*14

$GPGSV,3,1,12,01,,,29,02,,,31,03,,,22,05,43,066,30*40

$GPGSV,3,2,12,09,,,19,10,,,30,11,,,17,15,05,121,19*45

$GPGSV,3,3,12,16,36,304,21,18,70,223,38,26,49,270,32,29,54,112,36*7A

$GNGLL,5550.94540,N,03732.61421,E,103313.00,A,A*78

$GNRMC,103314.00,A,5550.94537,N,03732.61384,E,0.086,,180425,,,A*6A

$GNVTG,,T,,M,0.086,N,0.160,K,A*34

$GNGGA,103314.00,5550.94537,N,03732.61384,E,1,04,3.00,178.8,M,13.3,M,,*42

$GNGSA,A,3,29,18,26,05,,,,,,,,,4.58,3.00,3.46*14

$GPGSV,3,1,11,01,,,31,02,,,32,03,,,20,05,43,066,29*43

$GPGSV,3,2,11,10,,,30,11,,,20,15,05,121,21,16,36,304,20*7F

$GPGSV,3,3,11,18,70,223,38,26,49,270,31,29,54,112,36*4C

$GNGLL,5550.94537,N,03732.61384,E,103314.00,A,A*77

$GNRMC,103315.00,A,5550.94524,N,03732.61425,E,0.086,,180425,,,A*65

$GNVTG,,T,,M,0.086,N,0.159,K,A*3E

$GNGGA,103315.00,5550.94524,N,03732.61425,E,1,04,3.00,178.2,M,13.3,M,,*47

$GNGSA,A,3,29,18,26,05,,,,,,,,,4.58,3.00,3.46*14

$GPGSV,3,1,11,01,,,31,02,,,32,03,,,18,05,43,066,28*49

$GPGSV,3,2,11,10,,,30,11,,,22,15,05,121,28,16,36,304,20*74

$GPGSV,3,3,11,18,70,223,36,26,49,270,32,29,54,112,37*40

$GNGLL,5550.94524,N,03732.61425,E,103315.00,A,A*78

$GNRMC,103316.00,A,5550.94525,N,03732.61404,E,0.148,,180425,,,A*67

$GNVTG,,T,,M,0.148,N,0.273,K,A*36

$GNGGA,103316.00,5550.94525,N,03732.61404,E,1,04,3.00,178.5,M,13.3,M,,*41

$GNGSA,A,3,29,18,26,05,,,,,,,,,4.58,3.00,3.46*14

$GPGSV,3,1,11,01,,,31,02,,,26,03,,,18,05,43,066,33*46

$GPGSV,3,2,11,10,,,30,11,,,21,15,05,121,26,16,36,304,21*78

$GPGSV,3,3,11,18,70,223,37,26,49,270,24,29,54,112,39*48

$GNGLL,5550.94525,N,03732.61404,E,103316.00,A,A*79

$GNRMC,103317.00,A,5550.94516,N,03732.61428,E,0.090,,180425,,,A*6C

$GNVTG,,T,,M,0.090,N,0.167,K,A*34

$GNGGA,103317.00,5550.94516,N,03732.61428,E,1,04,2.99,178.1,M,13.3,M,,*4B

$GNGSA,A,3,29,18,26,05,,,,,,,,,4.58,2.99,3.46*15

$GPGSV,3,1,10,01,,,30,02,,,30,03,,,19,05,43,066,34*47

$GPGSV,3,2,10,10,,,30,15,05,121,23,16,36,304,20,18,70,223,37*47

$GPGSV,3,3,10,26,49,270,22,29,54,112,38*77

$GNGLL,5550.94516,N,03732.61428,E,103317.00,A,A*76

$GNRMC,103318.00,A,5550.94510,N,03732.61409,E,0.036,,180425,,,A*6A

$GNVTG,,T,,M,0.036,N,0.066,K,A*38

$GNGGA,103318.00,5550.94510,N,03732.61409,E,1,04,2.99,178.1,M,13.3,M,,*41

$GNGSA,A,3,29,18,26,05,,,,,,,,,4.58,2.99,3.46*15

$GPGSV,2,1,08,01,,,34,02,,,31,05,43,066,35,15,05,121,29*78

$GPGSV,2,2,08,16,36,304,18,18,70,223,38,26,49,270,25,29,54,112,39*72

$GNGLL,5550.94510,N,03732.61409,E,103318.00,A,A*7C

$GNRMC,103319.00,A,5550.94510,N,03732.61393,E,0.265,,180425,,,A*6B

$GNVTG,,T,,M,0.265,N,0.491,K,A*30

$GNGGA,103319.00,5550.94510,N,03732.61393,E,1,04,2.99,177.9,M,13.3,M,,*43

$GNGSA,A,3,29,18,26,05,,,,,,,,,4.58,2.99,3.46*15

$GPGSV,2,1,08,01,,,29,02,,,31,05,43,066,35,15,05,121,20*7D

$GPGSV,2,2,08,16,36,304,18,18,70,223,40,26,49,270,25,29,54,112,37*73

$GNGLL,5550.94510,N,03732.61393,E,103319.00,A,A*79

$GNRMC,103320.00,A,5550.94517,N,03732.61368,E,0.123,,180425,,,A*63

$GNVTG,,T,,M,0.123,N,0.228,K,A*35

$GNGGA,103320.00,5550.94517,N,03732.61368,E,1,04,2.99,178.0,M,13.3,M,,*4C

$GNGSA,A,3,29,18,26,05,,,,,,,,,4.58,2.99,3.46*15

$GPGSV,2,1,08,01,,,30,02,,,32,05,43,066,32,15,05,121,19*7B

$GPGSV,2,2,08,16,36,304,27,18,70,223,39,26,49,270,26,29,54,112,38*7D

$GNGLL,5550.94517,N,03732.61368,E,103320.00,A,A*70

$GNRMC,103321.00,A,5550.94525,N,03732.61358,E,0.104,,180425,,,A*65

$GNVTG,,T,,M,0.104,N,0.192,K,A*32

$GNGGA,103321.00,5550.94525,N,03732.61358,E,1,04,2.99,177.9,M,13.3,M,,*49

$GNGSA,A,3,29,18,26,05,,,,,,,,,4.58,2.99,3.46*15

$GPGSV,2,1,07,02,,,32,05,43,066,34,15,05,121,,16,36,304,26*49

$GPGSV,2,2,07,18,70,223,40,26,49,270,26,29,54,112,38*4C

$GNGLL,5550.94525,N,03732.61358,E,103321.00,A,A*73

$GNRMC,103322.00,A,5550.94537,N,03732.61363,E,0.086,,180425,,,A*66

$GNVTG,,T,,M,0.086,N,0.158,K,A*3F

$GNGGA,103322.00,5550.94537,N,03732.61363,E,1,04,3.44,177.9,M,13.3,M,,*40

$GNGSA,A,3,29,18,26,05,,,,,,,,,6.46,3.44,5.47*1E

$GPGSV,4,1,16,01,,,27,02,,,33,04,,,34,05,43,066,35*4A

$GPGSV,4,2,16,06,,,35,07,,,35,08,,,33,09,,,32*79

$GPGSV,4,3,16,10,,,31,11,,,31,12,,,33,15,05,121,*48

$GPGSV,4,4,16,16,36,304,22,18,70,223,40,26,49,270,27,29,54,112,38*78

$GNGLL,5550.94537,N,03732.61363,E,103322.00,A,A*7B

$GNRMC,103323.00,A,5550.94544,N,03732.61390,E,0.107,,180425,,,A*67

$GNVTG,,T,,M,0.107,N,0.198,K,A*3B

$GNGGA,103323.00,5550.94544,N,03732.61390,E,1,04,3.44,177.6,M,13.3,M,,*46

$GNGSA,A,3,29,18,26,05,,,,,,,,,6.46,3.44,5.46*1F

$GPGSV,4,1,16,01,,,30,02,,,32,04,,,33,05,43,066,31*4E

$GPGSV,4,2,16,06,,,32,07,,,31,08,,,15,09,,,31*7D

$GPGSV,4,3,16,10,,,24,11,,,29,12,,,32,15,05,121,*44

$GPGSV,4,4,16,16,36,304,21,18,70,223,40,26,49,270,33,29,54,112,38*7E

$GNGLL,5550.94544,N,03732.61390,E,103323.00,A,A*72

$GNRMC,103324.00,A,5550.94552,N,03732.61404,E,0.011,,180425,,,A*6B

$GNVTG,,T,,M,0.011,N,0.020,K,A*3F

$GNGGA,103324.00,5550.94552,N,03732.61404,E,1,04,3.44,177.4,M,13.3,M,,*4E

$GNGSA,A,3,29,18,26,05,,,,,,,,,6.45,3.44,5.46*1C

$GPGSV,4,1,16,01,,,19,02,,,31,04,,,32,05,43,066,32*44

$GPGSV,4,2,16,06,,,31,07,,,31,08,,,15,09,,,30*7F

$GPGSV,4,3,16,10,,,21,11,,,27,12,,,31,15,05,121,*4C

$GPGSV,4,4,16,16,36,304,21,18,70,223,40,26,49,270,34,29,54,112,38*79

$GNGLL,5550.94552,N,03732.61404,E,103324.00,A,A*78

$GNRMC,103325.00,A,5550.94555,N,03732.61416,E,0.090,,180425,,,A*67

$GNVTG,,T,,M,0.090,N,0.167,K,A*34

$GNGGA,103325.00,5550.94555,N,03732.61416,E,1,04,3.43,177.1,M,13.3,M,,*49

$GNGSA,A,3,29,18,26,05,,,,,,,,,6.45,3.43,5.46*1B

$GPGSV,4,2,16,06,,,30,07,,,31,08,,,19,09,,,29*7A

$GPGSV,4,3,16,10,,,16,11,,,26,12,,,31,15,05,121,*49

$GPGSV,4,4,16,16,36,304,18,18,70,223,40,26,49,270,34,29,54,112,38*73

$GNGLL,5550.94555,N,03732.61416,E,103325.00,A,A*7D

$GNRMC,103326.00,A,5550.94555,N,03732.61427,E,0.185,,180425,,,A*63

$GNVTG,,T,,M,0.185,N,0.344,K,A*32

$GNGGA,103326.00,5550.94555,N,03732.61427,E,1,04,2.99,176.9,M,13.3,M,,*47

$GNGSA,A,3,29,18,26,05,,,,,,,,,4.57,2.99,3.46*1A

$GPGSV,4,1,16,01,,,17,02,,,30,04,,,30,05,43,066,33*48

$GPGSV,4,2,16,06,,,22,07,,,30,08,,,23,09,,,29*71

$GPGSV,4,3,16,10,,,15,11,,,24,12,,,30,15,05,121,*49

$GPGSV,4,4,16,16,36,304,20,18,70,223,40,26,49,270,37,29,54,112,38*7B

$GNGLL,5550.94555,N,03732.61427,E,103326.00,A,A*7C

$GNRMC,103327.00,A,5550.94565,N,03732.61405,E,0.081,,180425,,,A*64

$GNVTG,,T,,M,0.081,N,0.149,K,A*38

$GNGGA,103327.00,5550.94565,N,03732.61405,E,1,04,2.99,177.2,M,13.3,M,,*4F

$GNGSA,A,3,29,18,26,05,,,,,,,,,4.57,2.99,3.46*1A

$GPGSV,4,1,16,01,,,18,02,,,30,04,,,29,05,43,066,36*4A

$GPGSV,4,2,16,06,,,30,07,,,30,08,,,20,09,,,27*7F

$GPGSV,4,3,16,10,,,26,11,,,27,12,,,22,15,05,121,*49

$GPGSV,4,4,16,16,36,304,23,18,70,223,40,26,49,270,37,29,54,112,38*78

$GNGLL,5550.94565,N,03732.61405,E,103327.00,A,A*7E

64

$GNVTG,,T,,M,0.072,N,0.133,K,A*39

$GNTXT,01,01,01,NMEA unknown msg*46

$GNGGA,103328.00,5550.94563,N,03732.61422,E,1,04,2.99,176.7,M,13.3,M,,*47

$GNGSA,A,3,29,18,26,05,,,,,,,,,4.57,2.99,3.46*1A

$GPGSV,4,1,16,01,,,18,04,,,29,05,43,066,35,06,,,30*4D

$GPGSV,4,2,16,07,,,30,08,,,17,09,,,27,10,,,24*79

$GPGSV,4,3,16,11,,,28,12,,,23,14,,,25,15,05,121,*40

$GPGSV,4,4,16,16,36,304,23,18,70,223,41,26,49,270,39,29,54,112,38*77

$GNGLL,5550.94563,N,03732.61422,E,103328.00,A,A*72

$GNRMC,103329.00,A,5550.94566,N,03732.61451,E,0.082,,180425,,,A*6B

$GNVTG,,T,,M,0.082,N,0.151,K,A*32

$GNGGA,103329.00,5550.94566,N,03732.61451,E,1,04,2.99,176.3,M,13.3,M,,*43

$GNGSA,A,3,29,18,26,05,,,,,,,,,4.57,2.99,3.46*1A

$GPGSV,5,1,17,01,,,20,03,,,26,04,,,29,05,43,066,35*44

$GPGSV,5,2,17,06,,,30,07,,,29,08,,,16,09,,,26*73

$GPGSV,5,3,17,10,,,23,11,,,28,12,,,23,14,,,20*76

$GPGSV,5,4,17,15,05,121,,16,36,304,22,18,70,223,41,26,49,270,38*77

$GPGSV,5,5,17,29,54,112,38*4C

$GNGLL,5550.94566,N,03732.61451,E,103329.00,A,A*72

$GNRMC,103330.00,A,5550.94576,N,03732.61446,E,0.057,,180425,,,A*6C

$GNVTG,,T,,M,0.057,N,0.106,K,A*38

$GNGGA,103330.00,5550.94576,N,03732.61446,E,1,04,2.99,176.5,M,13.3,M,,*4A

$GNGSA,A,3,29,18,26,05,,,,,,,,,4.57,2.99,3.46*1A

$GPGSV,5,1,17,01,,,19,03,,,26,04,,,30,05,43,066,34*47

$GPGSV,5,2,17,06,,,30,07,,,29,08,,,17,09,,,27*73

$GPGSV,5,3,17,10,,,21,11,,,26,12,,,27,15,05,121,*4A

$GPGSV,5,4,17,16,36,304,22,18,70,223,40,20,,,27,26,49,270,38*42

$GPGSV,5,5,17,29,54,112,39*4D

$GNGLL,5550.94576,N,03732.61446,E,103330.00,A,A*7D

$GNRMC,103331.00,A,5550.94579,N,03732.61435,E,0.098,,180425,,,A*65

$GNVTG,,T,,M,0.098,N,0.182,K,A*37

$GNGGA,103331.00,5550.94579,N,03732.61435,E,1,04,2.99,176.8,M,13.3,M,,*4D

$GNGSA,A,3,29,18,26,05,,,,,,,,,4.57,2.99,3.46*1A

$GPGSV,5,1,17,01,,,18,03,,,28,04,,,28,05,43,066,33*46

$GPGSV,5,2,17,06,,,23,07,,,28,08,,,16,09,,,28*7E

$GPGSV,5,3,17,10,,,21,11,,,22,12,,,29,15,05,121,*40

$GPGSV,5,4,17,16,36,304,24,18,70,223,39,20,,,23,26,49,270,35*43

$GPGSV,5,5,17,29,54,112,39*4D

$GNGLL,5550.94579,N,03732.61435,E,103331.00,A,A*77

$GNRMC,103332.00,A,5550.94583,N,03732.61420,E,0.052,,180425,,,A*61

$GNVTG,,T,,M,0.052,N,0.097,K,A*34

$GNGGA,103332.00,5550.94583,N,03732.61420,E,1,04,2.99,176.9,M,13.3,M,,*4E

$GNGSA,A,3,29,18,26,05,,,,,,,,,4.57,2.99,3.46*1A

$GNTXT,01,01,01,NMEA unknown msg*46

$GPGSV,5,1,17,01,,,20,03,,,19,04,,,33,05,43,066,33*45

$GPGSV,5,2,17,06,,,32,07,,,33,08,,,19,09,,,29*7A

$GPGSV,5,3,17,10,,,28,11,,,30,12,,,29,15,05,121,*4A

$GPGSV,5,4,17,16,36,304,31,18,70,223,39,20,,,21,26,49,270,26*47

$GPGSV,5,5,17,29,54,112,39*4D

$GNGLL,5550.94583,N,03732.61420,E,103332.00,A,A*75

$GNRMC,103333.00,A,5550.94586,N,03732.61416,E,0.025,,180425,,,A*60

$GNVTG,,T,,M,0.025,N,0.046,K,A*38

$GNGGA,103333.00,5550.94586,N,03732.61416,E,1,04,2.99,176.8,M,13.3,M,,*4E

$GNGSA,A,3,29,18,26,05,,,,,,,,,4.57,2.99,3.46*1A

$GPGSV,4,1,13,01,,,21,03,,,18,04,,,32,05,43,066,35*47

$GPGSV,4,2,13,06,,,32,07,,,32,12,,,30,15,05,121,*4F

$GPGSV,4,3,13,16,36,304,24,18,70,223,40,20,,,19,26,49,270,27*45

$GPGSV,4,4,13,29,54,112,39*49

$GNGLL,5550.94586,N,03732.61416,E,103333.00,A,A*74

$GNRMC,103334.00,A,5550.94602,N,03732.61479,E,0.029,,180425,,,A*6D

$GNVTG,,T,,M,0.029,N,0.054,K,A*37

$GNGGA,103334.00,5550.94602,N,03732.61479,E,1,04,2.99,176.7,M,13.3,M,,*40

$GNGSA,A,3,29,18,26,05,,,,,,,,,4.57,2.99,3.46*1A

$GPGSV,4,1,16,03,,,23,04,,,32,05,43,066,36,06,,,31*4F

$GPGSV,4,2,16,07,,,33,08,,,26,09,,,23,10,,,27*7F

$GPGSV,4,3,16,11,,,29,12,,,29,15,05,121,,16,36,304,20*7E

$GPGSV,4,4,16,18,70,223,40,20,,,19,26,49,270,32,29,54,112,37*4C

$GNGLL,5550.94602,N,03732.61479,E,103334.00,A,A*75

$GNRMC,103335.00,A,5550.94613,N,03732.61492,E,0.143,,180425,,,A*64

$GNVTG,,T,,M,0.143,N,0.264,K,A*3B

$GNGGA,103335.00,5550.94613,N,03732.61492,E,1,04,2.99,176.8,M,13.3,M,,*4B

$GNGSA,A,3,29,18,26,05,,,,,,,,,4.57,2.99,3.46*1A

$GPGSV,5,1,17,03,,,26,04,,,32,05,43,066,33,06,,,31*4F

$GPGSV,5,2,17,07,,,36,08,,,26,10,,,26,11,,,29*78

$GPGSV,5,3,17,12,,,28,15,05,121,,16,36,304,22,18,70,223,40*4F

$GPGSV,5,4,17,20,,,21,23,,,25,24,,,28,26,49,270,32*48

$GPGSV,5,5,17,29,54,112,37*43

$GNGLL,5550.94613,N,03732.61492,E,103335.00,A,A*71

$GNRMC,103336.00,A,5550.94614,N,03732.61504,E,0.111,,180425,,,A*69

$GNVTG,,T,,M,0.111,N,0.206,K,A*38

$GNGGA,103336.00,5550.94614,N,03732.61504,E,1,04,2.99,176.7,M,13.3,M,,*4E

$GNGSA,A,3,29,18,26,05,,,,,,,,,4.57,2.99,3.46*1A

$GPGSV,5,1,17,03,,,28,04,,,33,05,43,066,27,06,,,33*47

$GPGSV,5,2,17,07,,,36,08,,,25,10,,,26,11,,,29*7B

$GPGSV,5,3,17,12,,,28,15,05,121,,16,36,304,21,18,70,223,39*42

$GPGSV,5,4,17,20,,,22,23,,,23,24,,,28,26,49,270,34*4B

$GPGSV,5,5,17,29,54,112,37*43

$GNGLL,5550.94614,N,03732.61504,E,103336.00,A,A*7B

$GNRMC,103337.00,A,5550.94617,N,03732.61539,E,0.028,,180425,,,A*6E

$GNVTG,,T,,M,0.028,N,0.053,K,A*31

$GNGGA,103337.00,5550.94617,N,03732.61539,E,1,04,2.99,176.5,M,13.3,M,,*40

$GNGSA,A,3,29,18,26,05,,,,,,,,,4.57,2.99,3.46*1A

$GPGSV,5,1,17,03,,,28,04,,,32,05,43,066,33,06,,,26*47

$GPGSV,5,2,17,07,,,33,08,,,24,10,,,26,11,,,18*7D

$GPGSV,5,3,17,12,,,29,15,05,121,,16,36,304,20,18,70,223,39*42

$GPGSV,5,4,17,20,,,22,23,,,21,24,,,17,26,49,270,30*41

$GPGSV,5,5,17,29,54,112,39*4D

$GNGLL,5550.94617,N,03732.61539,E,103337.00,A,A*77

$GNRMC,103337.00,A,5550.94623,N,03732.61517,E,0.100,,180425,,,A*6E

$GNVTG,,T,,M,0.100,N,0.186,K,A*33

$GNGGA,103337.00,5550.94623,N,03732.61517,E,1,04,2.99,176.8,M,13.3,M,,*46

$GNGSA,A,3,29,18,26,05,,,,,,,,,4.57,2.99,3.46*1A

$GPGSV,5,1,17,03,,,25,04,,,32,05,43,066,34,06,,,26*4D

$GPGSV,5,2,17,07,,,32,08,,,21,10,,,26,11,,,21*73

$GPGSV,5,3,17,12,,,29,15,05,121,,16,36,304,19,18,70,223,39*48

$GPGSV,5,4,17,20,,,22,23,,,21,24,,,17,26,49,270,29*49

$GPGSV,5,5,17,29,54,112,39*4D

$GNGLL,5550.94623,N,03732.61517,E,103337.00,A,A*7C

$GNRMC,103338.00,A,5550.94642,N,03732.61504,E,0.054,,180425,,,A*64

$GNVTG,,T,,M,0.054,N,0.101,K,A*3C

$GNGGA,103338.00,5550.94642,N,03732.61504,E,1,04,2.99,177.3,M,13.3,M,,*46

$GNGSA,A,3,29,18,26,05,,,,,,,,,4.57,2.99,3.46*1A

$GPGSV,5,1,17,03,,,25,04,,,32,05,43,066,33,06,,,28*44

$GPGSV,5,2,17,07,,,32,08,,,21,10,,,26,11,,,26*74

$GPGSV,5,3,17,12,,,28,15,05,121,,16,36,304,19,18,70,223,39*49

$GPGSV,5,4,17,20,,,20,23,,,20,24,,,20,26,49,270,28*4F

$GPGSV,5,5,17,29,54,112,39*4D

$GNGLL,5550.94642,N,03732.61504,E,103338.00,A,A*76

$GNRMC,103339.00,A,5550.94658,N,03732.61527,E,0.088,,180425,,,A*6E

$GNVTG,,T,,M,0.088,N,0.163,K,A*39

$GNGGA,103339.00,5550.94658,N,03732.61527,E,1,04,2.99,177.4,M,13.3,M,,*4A

$GNGSA,A,3,29,18,26,05,,,,,,,,,4.57,2.99,3.46*1A

$GPGSV,5,1,17,03,,,29,04,,,32,05,43,066,34,06,,,29*4E

$GPGSV,5,2,17,07,,,32,08,,,20,10,,,27,11,,,26*74

$GPGSV,5,3,17,12,,,29,15,05,121,,16,36,304,19,18,70,223,39*48

$GPGSV,5,4,17,20,,,22,23,,,20,24,,,23,26,49,270,34*43

$GPGSV,5,5,17,29,54,112,37*43

$GNGLL,5550.94658,N,03732.61527,E,103339.00,A,A*7D

$GNRMC,103340.00,A,5550.94670,N,03732.61529,E,0.084,,180425,,,A*68

$GNVTG,,T,,M,0.084,N,0.155,K,A*30

$GNGGA,103340.00,5550.94670,N,03732.61529,E,1,04,2.99,177.6,M,13.3,M,,*42

$GNGSA,A,3,29,18,26,05,,,,,,,,,4.57,2.99,3.46*1A

$GPGSV,4,1,16,03,,,29,04,,,33,05,43,066,35,06,,,28*4F

$GPGSV,4,2,16,07,,,33,08,,,18,10,,,28,11,,,25*72

$GPGSV,4,3,16,12,,,30,15,05,121,,16,36,304,19,18,70,223,39*40

$GPGSV,4,4,16,23,,,21,24,,,24,26,49,270,34,29,54,112,37*7B

$GNGLL,5550.94670,N,03732.61529,E,103340.00,A,A*77

$GNRMC,103341.00,A,5550.94681,N,03732.61526,E,0.026,,180425,,,A*60

$GNVTG,,T,,M,0.026,N,0.048,K,A*35

$GNGGA,103341.00,5550.94681,N,03732.61526,E,1,04,2.99,177.9,M,13.3,M,,*4D

$GNGSA,A,3,29,18,26,05,,,,,,,,,4.57,2.99,3.46*1A

$GPGSV,5,1,17,03,,,29,04,,,33,05,43,066,36,06,,,28*4C

$GPGSV,5,2,17,07,,,34,08,,,19,10,,,28,11,,,25*74

$GPGSV,5,3,17,12,,,30,15,05,121,,16,36,304,23,18,70,223,38*48

$GPGSV,5,4,17,23,,,22,24,,,26,25,,,31,26,49,270,34*43

$GPGSV,5,5,17,29,54,112,36*42

$GNGLL,5550.94681,N,03732.61526,E,103341.00,A,A*77

$GNRMC,103342.00,A,5550.94676,N,03732.61490,E,0.022,,180425,,,A*63

$GNVTG,,T,,M,0.022,N,0.040,K,A*39

$GNGGA,103342.00,5550.94676,N,03732.61490,E,1,04,2.99,178.1,M,13.3,M,,*4D

$GNGSA,A,3,29,18,26,05,,,,,,,,,4.57,2.99,3.46*1A

$GPGSV,5,1,17,03,,,29,04,,,32,05,43,066,36,06,,,29*4C

$GPGSV,5,2,17,07,,,35,08,,,20,10,,,28,11,,,26*7C

$GPGSV,5,3,17,12,,,30,15,05,121,,16,36,304,23,18,70,223,38*48

$GPGSV,5,4,17,23,,,22,24,,,26,25,,,30,26,49,270,34*42

$GPGSV,5,5,17,29,54,112,36*42

$GNGLL,5550.94676,N,03732.61490,E,103342.00,A,A*70

$GNRMC,103343.00,A,5550.94676,N,03732.61420,E,0.056,,180425,,,A*6A

$GNVTG,,T,,M,0.056,N,0.104,K,A*3B

$GNGGA,103343.00,5550.94676,N,03732.61420,E,1,04,2.99,178.9,M,13.3,M,,*4F

$GNGSA,A,3,29,18,26,05,,,,,,,,,4.57,2.99,3.46*1A

$GPGSV,4,1,15,03,,,29,04,,,31,05,43,066,36,06,,,28*4D

$GPGSV,4,2,15,07,,,34,08,,,18,15,05,121,,16,36,303,24*7D

$GPGSV,4,3,15,18,70,223,38,23,,,23,24,,,26,25,,,29*42

$GPGSV,4,4,15,26,49,270,34,27,,,33,29,54,112,36*7E

$GNGLL,5550.94676,N,03732.61420,E,103343.00,A,A*7A

$GNRMC,103344.00,A,5550.94677,N,03732.61402,E,0.064,,180425,,,A*6D

$GNVTG,,T,,M,0.064,N,0.118,K,A*37

$GNGGA,103344.00,5550.94677,N,03732.61402,E,1,04,2.99,179.3,M,13.3,M,,*42

$GNGSA,A,3,29,18,26,05,,,,,,,,,4.57,2.99,3.46*1A

$GPGSV,4,1,16,03,,,28,04,,,26,05,43,066,35,06,,,28*4A

$GPGSV,4,2,16,07,,,34,12,,,34,15,05,121,,16,36,303,24*7B

$GPGSV,4,3,16,18,70,223,37,23,,,21,24,,,25,25,,,28*4E

$GPGSV,4,4,16,26,49,270,33,27,,,32,29,54,112,35,31,,,21*79

$GNGLL,5550.94677,N,03732.61402,E,103344.00,A,A*7C

$GNRMC,103345.00,A,5550.94676,N,03732.61383,E,0.012,,180425,,,A*62

$GNVTG,,T,,M,0.012,N,0.022,K,A*3E

$GNGGA,103345.00,5550.94676,N,03732.61383,E,1,04,2.99,179.6,M,13.3,M,,*49

$GNGSA,A,3,29,18,26,05,,,,,,,,,4.57,2.99,3.46*1A

$GPGSV,4,1,15,03,,,28,04,,,24,05,43,066,36,06,,,28*48

$GPGSV,4,2,15,07,,,34,08,,,21,12,,,34,15,05,121,*47

$GPGSV,4,3,15,16,36,303,21,18,70,223,37,25,,,28,26,49,270,32*42

$GPGSV,4,4,15,27,,,32,29,54,112,34,31,,,19*4C

$GNGLL,5550.94676,N,03732.61383,E,103345.00,A,A*72

$GNRMC,103346.00,A,5550.94669,N,03732.61372,E,0.150,,180425,,,A*66

$GNVTG,,T,,M,0.150,N,0.278,K,A*34

$GNGGA,103346.00,5550.94669,N,03732.61372,E,1,04,2.99,179.8,M,13.3,M,,*44

$GNGSA,A,3,29,18,26,05,,,,,,,,,4.57,2.99,3.46*1A

$GPGSV,4,1,14,03,,,27,04,,,22,05,43,066,36,07,,,34*4C

$GPGSV,4,2,14,08,,,18,12,,,33,15,05,121,,16,36,303,21*7A

$GPGSV,4,4,14,29,54,112,39,31,,,21*4F

$GNGLL,5550.94669,N,03732.61372,E,103346.00,A,A*71

$GNRMC,103347.00,A,5550.94668,N,03732.61359,E,0.160,,180425,,,A*6C

$GNVTG,,T,,M,0.160,N,0.296,K,A*37

$GNGGA,103347.00,5550.94668,N,03732.61359,E,1,04,2.99,180.0,M,13.3,M,,*43

$GNGSA,A,3,29,18,26,05,,,,,,,,,4.57,2.99,3.46*1A

$GPGSV,4,1,14,03,,,27,04,,,21,05,43,066,29,07,,,36*43

$GPGSV,4,2,14,08,,,20,12,,,33,15,05,121,,16,36,303,21*71

$GPGSV,4,3,14,18,70,223,35,25,,,32,26,49,270,33,27,,,33*7F

$GPGSV,4,4,14,29,54,112,37,31,,,21*41

$GNGLL,5550.94668,N,03732.61359,E,103347.00,A,A*78

$GNRMC,103348.00,A,5550.94666,N,03732.61330,E,0.299,,180425,,,A*67

$GNVTG,,T,,M,0.299,N,0.553,K,A*3C

$GNGGA,103348.00,5550.94666,N,03732.61330,E,1,04,2.99,180.5,M,13.3,M,,*48

$GNGSA,A,3,29,18,26,05,,,,,,,,,4.57,2.99,3.46*1A

$GPGSV,4,1,13,03,,,26,04,,,20,05,43,066,36,07,,,33*4F

$GPGSV,4,2,13,08,,,22,12,,,33,15,05,121,,16,36,303,23*76

$GPGSV,4,3,13,18,70,223,38,25,,,27,26,49,270,28,27,,,33*7B

$GPGSV,4,4,13,29,54,112,39*49

$GNGLL,5550.94666,N,03732.61330,E,103348.00,A,A*76

$GNRMC,103349.00,A,5550.94666,N,03732.61249,E,0.104,,180425,,,A*6E

$GNVTG,,T,,M,0.104,N,0.192,K,A*32

$GNGGA,103349.00,5550.94666,N,03732.61249,E,1,04,2.99,180.7,M,13.3,M,,*44

$GNGSA,A,3,29,18,26,05,,,,,,,,,4.57,2.99,3.46*1A

$GPGSV,4,1,13,03,,,25,04,,,19,05,43,066,38,07,,,28*42

$GPGSV,4,2,13,08,,,20,12,,,32,15,05,121,,16,36,303,22*74

$GPGSV,4,3,13,18,70,223,38,25,,,25,26,49,270,38,27,,,18*71

$GPGSV,4,4,13,29,54,112,39*49

$GNGLL,5550.94666,N,03732.61249,E,103349.00,A,A*78

$GNRMC,103350.00,A,5550.94673,N,03732.61288,E,0.056,,180425,,,A*69

$GNVTG,,T,,M,0.056,N,0.104,K,A*3B

$GNGGA,103350.00,5550.94673,N,03732.61288,E,1,04,2.98,180.3,M,13.3,M,,*40

$GNGSA,A,3,29,18,26,05,,,,,,,,,4.57,2.98,3.46*1B

$GPGSV,3,1,12,04,,,18,05,43,066,37,07,,,27,08,,,22*49

$GPGSV,3,2,12,12,,,32,15,05,121,,16,36,303,20,18,70,223,38*4C

$GPGSV,3,3,12,25,,,23,26,49,270,35,27,,,20,29,54,112,39*73

$GNGLL,5550.94673,N,03732.61288,E,103350.00,A,A*79

$GNRMC,103351.00,A,5550.94679,N,03732.61264,E,0.097,,180425,,,A*6D

$GNVTG,,T,,M,0.097,N,0.180,K,A*3A

$GNGGA,103351.00,5550.94679,N,03732.61264,E,1,04,2.98,180.2,M,13.3,M,,*48

$GNGSA,A,3,29,18,26,05,,,,,,,,,4.57,2.98,3.46*1B

$GPGSV,3,1,11,04,,,19,05,43,066,38,07,,,32,08,,,23*41

$GPGSV,3,2,11,12,,,33,15,05,121,,16,36,303,17,18,70,223,37*45

$GPGSV,3,3,11,26,49,270,31,27,,,29,29,54,112,37*75

$GNGLL,5550.94679,N,03732.61264,E,103351.00,A,A*70

$GNRMC,103352.00,A,5550.94682,N,03732.61308,E,0.057,,180425,,,A*6D

$GNVTG,,T,,M,0.057,N,0.106,K,A*38

$GNGGA,103352.00,5550.94682,N,03732.61308,E,1,04,2.98,179.7,M,13.3,M,,*47

$GNGSA,A,3,29,18,26,05,,,,,,,,,4.57,2.98,3.46*1B

$GPGSV,3,1,11,04,,,19,05,43,066,38,07,,,28,08,,,22*4B

$GPGSV,3,2,11,12,,,32,15,05,121,,16,36,303,,18,70,223,38*4D

$GPGSV,3,3,11,26,49,270,35,27,,,28,29,54,112,38*7F

$GNGLL,5550.94682,N,03732.61308,E,103352.00,A,A*7C

$GNRMC,103353.00,A,5550.94685,N,03732.61297,E,0.065,,180425,,,A*6D

$GNVTG,,T,,M,0.065,N,0.121,K,A*3C

$GNGGA,103353.00,5550.94685,N,03732.61297,E,1,04,2.98,179.6,M,13.3,M,,*47

$GNGSA,A,3,29,18,26,05,,,,,,,,,4.57,2.98,3.46*1B

$GPGSV,3,1,11,04,,,18,05,43,066,35,07,,,33,08,,,23*4C

$GPGSV,3,2,11,12,,,31,15,05,121,,16,36,303,26,18,70,223,38*4A

$GPGSV,3,3,11,26,49,270,29,27,,,34,29,54,112,37*70

$GNGLL,5550.94685,N,03732.61297,E,103353.00,A,A*7D

$GNRMC,103354.00,A,5550.94684,N,03732.61270,E,0.080,,180425,,,A*69

$GNVTG,,T,,M,0.080,N,0.147,K,A*37

$GNGGA,103354.00,5550.94684,N,03732.61270,E,1,04,2.98,179.5,M,13.3,M,,*4B

$GNGSA,A,3,29,18,26,05,,,,,,,,,4.57,2.98,3.46*1B

$GPGSV,3,1,10,04,,,16,05,43,066,34,07,,,33,08,,,22*43

$GPGSV,3,2,10,15,05,121,,16,36,303,25,18,70,223,39,26,49,270,31*76

$GPGSV,3,3,10,27,,,34,29,54,112,37*46

$GNGLL,5550.94684,N,03732.61270,E,103354.00,A,A*72

67

$GNVTG,,T,,M,0.309,N,0.573,K,A*36

$GNGGA,103355.00,5550.94694,N,03732.61328,E,1,04,2.98,179.1,M,13.3,M,,*43

$GNGSA,A,3,29,18,26,05,,,,,,,,,4.57,2.98,3.46*1B

$GPGSV,2,1,08,04,,,16,05,43,066,37,08,,,21,15,05,121,*7F

$GPGSV,2,2,08,16,36,303,26,18,70,223,41,26,49,270,41,29,54,112,37*7A

$GNGLL,5550.94694,N,03732.61328,E,103355.00,A,A*7E

$GNRMC,103356.00,A,5550.94728,N,03732.61415,E,0.768,,180425,,,A*68

$GNVTG,,T,,M,0.768,N,1.422,K,A*31

$GNGGA,103356.00,5550.94728,N,03732.61415,E,1,04,2.98,178.9,M,13.3,M,,*46

$GNGSA,A,3,29,18,26,05,,,,,,,,,4.57,2.98,3.46*1B

$GPGSV,2,1,07,04,,,13,05,43,066,33,15,05,121,,16,36,303,23*49

$GPGSV,2,2,07,18,70,223,42,26,49,270,35,29,54,112,35*41

$GNGLL,5550.94728,N,03732.61415,E,103356.00,A,A*72

$GNRMC,103357.00,A,5550.94690,N,03732.61475,E,0.925,,180425,,,A*6A

$GNVTG,,T,,M,0.925,N,1.713,K,A*37

$GNGGA,103357.00,5550.94690,N,03732.61475,E,1,04,2.98,178.1,M,13.3,M,,*4B

$GNGSA,A,3,29,18,26,05,,,,,,,,,4.57,2.98,3.46*1B

$GPGSV,2,1,08,04,,,10,05,43,066,32,08,,,28,15,05,121,*75

$GPGSV,2,2,08,16,36,303,20,18,70,223,42,26,49,270,34,29,54,112,31*7B

$GNGLL,5550.94690,N,03732.61475,E,103357.00,A,A*77

$GNRMC,103358.00,A,5550.94628,N,03732.61571,E,2.124,93.79,180425,,,A*42

$GNVTG,93.79,T,,M,2.124,N,3.934,K,A*1F

$GNGGA,103358.00,5550.94628,N,03732.61571,E,1,04,2.98,177.6,M,13.3,M,,*4A

$GNGSA,A,3,29,18,26,05,,,,,,,,,4.57,2.98,3.46*1B

$GPGSV,2,1,08,04,,,14,05,43,066,32,08,,,30,15,05,121,*78

$GPGSV,2,2,08,16,36,303,18,18,70,223,42,26,49,270,36,29,54,112,32*71

$GNGLL,5550.94628,N,03732.61571,E,103358.00,A,A*7E

$GNRMC,103359.00,A,5550.94569,N,03732.61598,E,2.358,107.99,180425,,,A*79

$GNVTG,107.99,T,,M,2.358,N,4.367,K,A*2F

$GNGGA,103359.00,5550.94569,N,03732.61598,E,1,04,2.98,177.0,M,13.3,M,,*4C

$GNGSA,A,3,29,18,26,05,,,,,,,,,4.57,2.98,3.46*1B

$GPGSV,2,1,08,04,,,14,05,43,066,32,08,,,33,15,05,121,*7B

$GPGSV,2,2,08,16,36,303,20,18,70,223,42,26,49,270,34,29,54,112,35*7F

$GNGLL,5550.94569,N,03732.61598,E,103359.00,A,A*7E

$GNRMC,103400.00,A,5550.94486,N,03732.61768,E,2.197,132.38,180425,,,A*73

$GNVTG,132.38,T,,M,2.197,N,4.068,K,A*2F

$GNGGA,103400.00,5550.94486,N,03732.61768,E,1,04,2.98,175.6,M,13.3,M,,*4E

$GNGSA,A,3,29,18,26,05,,,,,,,,,4.57,2.98,3.46*1B

$GPGSV,2,1,08,04,,,14,05,43,066,35,08,,,36,15,05,121,*79

$GPGSV,2,2,08,16,36,303,21,18,70,223,41,26,49,270,31,29,54,112,33*7E

$GNGLL,5550.94486,N,03732.61768,E,103400.00,A,A*78

$GNRMC,103401.00,A,5550.94430,N,03732.61752,E,1.938,132.50,180425,,,A*76

$GNVTG,132.50,T,,M,1.938,N,3.589,K,A*22

$GNGGA,103401.00,5550.94430,N,03732.61752,E,1,04,2.98,175.4,M,13.3,M,,*49

$GNGSA,A,3,29,18,26,05,,,,,,,,,4.57,2.98,3.46*1B

$GPGSV,2,1,07,04,,,13,05,43,066,32,15,05,121,21,16,36,303,20*48

$GPGSV,2,2,07,18,70,223,41,26,49,270,27,29,54,112,38*4C

$GNGLL,5550.94430,N,03732.61752,E,103401.00,A,A*7D

$GNRMC,103402.00,A,5550.94422,N,03732.61798,E,0.920,150.11,180425,,,A*79

$GNVTG,150.11,T,,M,0.920,N,1.703,K,A*29

$GNGGA,103402.00,5550.94422,N,03732.61798,E,1,04,2.98,174.9,M,13.3,M,,*43

$GNGSA,A,3,29,18,26,05,,,,,,,,,4.57,2.98,3.46*1B

$GPGSV,2,1,06,05,43,066,35,15,05,121,18,16,36,303,20,18,70,223,35*79

$GPGSV,2,2,06,26,49,270,38,29,54,112,42*76

$GNGLL,5550.94422,N,03732.61798,E,103402.00,A,A*7B

$GNRMC,103403.00,A,5550.94428,N,03732.61819,E,0.232,,180425,,,A*66

$GNVTG,,T,,M,0.232,N,0.430,K,A*39

$GNGGA,103403.00,5550.94428,N,03732.61819,E,1,04,2.98,174.7,M,13.3,M,,*40

$GNGSA,A,3,29,18,26,05,,,,,,,,,4.57,2.98,3.46*1B

$GPGSV,2,1,06,05,43,066,39,15,05,121,15,16,36,303,18,18,70,223,40*71

$GPGSV,2,2,06,26,49,269,40,29,54,112,43*70

$GNGLL,5550.94428,N,03732.61819,E,103403.00,A,A*76

$GNRMC,103404.00,A,5550.94435,N,03732.61897,E,0.059,,180425,,,A*64

$GNVTG,,T,,M,0.059,N,0.109,K,A*39

$GNGGA,103404.00,5550.94435,N,03732.61897,E,1,04,2.98,174.2,M,13.3,M,,*48

$GNGSA,A,3,29,18,26,05,,,,,,,,,4.57,2.98,3.47*1A

$GPGSV,2,1,06,05,43,066,39,15,05,121,13,16,36,303,16,18,70,223,39*77

$GPGSV,2,2,06,26,49,269,41,29,53,112,43*76

$GNGLL,5550.94435,N,03732.61897,E,103404.00,A,A*7B

$GNRMC,103405.00,A,5550.94440,N,03732.61880,E,0.074,,180425,,,A*6E

$GNVTG,,T,,M,0.074,N,0.137,K,A*3B

$GNGGA,103405.00,5550.94440,N,03732.61880,E,1,04,2.98,174.3,M,13.3,M,,*4C

$GNGSA,A,3,29,18,26,05,,,,,,,,,4.57,2.98,3.47*1A

$GPGSV,2,1,06,05,43,066,39,15,05,121,09,16,36,303,,18,70,223,38*7A

$GPGSV,2,2,06,26,49,269,41,29,53,112,43*76

$GNGLL,5550.94440,N,03732.61880,E,103405.00,A,A*7E

$GNRMC,103406.00,A,5550.94435,N,03732.61903,E,0.075,,180425,,,A*64

$GNVTG,,T,,M,0.075,N,0.139,K,A*34

$GNGGA,103406.00,5550.94435,N,03732.61903,E,1,04,2.98,174.1,M,13.3,M,,*45

$GNGSA,A,3,29,18,26,05,,,,,,,,,4.57,2.98,3.47*1A

$GPGSV,2,1,06,05,43,066,40,15,05,121,07,16,36,303,,18,70,223,36*74

$GPGSV,2,2,06,26,49,269,42,29,53,112,43*75

$GNGLL,5550.94435,N,03732.61903,E,103406.00,A,A*75

$GNRMC,103407.00,A,5550.94441,N,03732.61778,E,0.723,,180425,,,A*60

$GNVTG,,T,,M,0.723,N,1.339,K,A*33

$GNGGA,103407.00,5550.94441,N,03732.61778,E,1,04,2.98,174.8,M,13.3,M,,*4C

$GNGSA,A,3,29,18,26,05,,,,,,,,,4.57,2.98,3.47*1A

$GPGSV,2,1,07,01,,,19,05,43,066,46,15,05,121,09,16,36,303,*4C

$GPGSV,2,2,07,18,70,223,39,26,49,269,22,29,53,112,34*45

$GNGLL,5550.94441,N,03732.61778,E,103407.00,A,A*75

$GNRMC,103408.00,A,5550.94453,N,03732.61752,E,0.201,,180425,,,A*61

$GNVTG,,T,,M,0.201,N,0.372,K,A*38

$GNGGA,103408.00,5550.94453,N,03732.61752,E,1,04,2.98,174.9,M,13.3,M,,*49

$GNGSA,A,3,29,18,26,05,,,,,,,,,4.57,2.98,3.47*1A

$GPGSV,2,1,08,01,,,18,04,,,29,05,43,066,45,15,05,121,13*77

$GPGSV,2,2,08,16,36,303,,18,70,223,38,26,49,269,30,29,53,112,35*7B

$GNGLL,5550.94453,N,03732.61752,E,103408.00,A,A*71

$GNRMC,103409.00,A,5550.94449,N,03732.61802,E,0.206,,180425,,,A*66

$GNVTG,,T,,M,0.206,N,0.381,K,A*33

$GNGGA,103409.00,5550.94449,N,03732.61802,E,1,04,2.98,174.3,M,13.3,M,,*43

$GNGSA,A,3,29,18,26,05,,,,,,,,,4.57,2.98,3.47*1A

$GPGSV,3,1,09,01,,,17,03,,,25,04,,,19,05,43,066,24*49

$GPGSV,3,2,09,15,05,121,16,16,36,303,,18,70,223,39,26,49,269,34*73

$GPGSV,3,3,09,29,53,112,42*49

$GNGLL,5550.94449,N,03732.61802,E,103409.00,A,A*71

$GNRMC,103410.00,A,5550.94444,N,03732.61836,E,0.145,,180425,,,A*60

$GNVTG,,T,,M,0.145,N,0.268,K,A*31

$GNGGA,103410.00,5550.94444,N,03732.61836,E,1,04,2.98,173.9,M,13.3,M,,*4C

$GNGSA,A,3,29,18,26,05,,,,,,,,,4.57,2.98,3.47*1A

$GPGSV,3,1,09,01,,,18,03,,,21,04,,,21,05,43,066,35*49

$GPGSV,3,2,09,15,05,121,17,16,36,303,25,18,70,223,38,26,49,269,39*79

$GPGSV,3,3,09,29,53,112,44*4F

$GNGLL,5550.94444,N,03732.61836,E,103410.00,A,A*73

$GNRMC,103411.00,A,5550.94454,N,03732.61807,E,0.122,,180425,,,A*63

$GNVTG,,T,,M,0.122,N,0.226,K,A*3A

$GNGGA,103411.00,5550.94454,N,03732.61807,E,1,04,2.98,174.4,M,13.3,M,,*44

$GNGSA,A,3,29,18,26,05,,,,,,,,,4.57,2.98,3.47*1A

$GPGSV,3,1,11,01,,,18,03,,,20,04,,,24,05,43,066,35*44

$GPGSV,3,2,11,06,,,23,15,05,121,18,16,36,303,24,18,70,223,40*48

$GPGSV,3,3,11,24,,,26,26,49,269,35,29,53,112,43*71

$GNGLL,5550.94454,N,03732.61807,E,103411.00,A,A*71

$GNRMC,103412.00,A,5550.94464,N,03732.61722,E,0.091,,180425,,,A*62

$GNVTG,,T,,M,0.091,N,0.168,K,A*3A

$GNGGA,103412.00,5550.94464,N,03732.61722,E,1,04,2.98,174.8,M,13.3,M,,*40

$GNGSA,A,3,29,18,26,05,,,,,,,,,4.57,2.98,3.47*1A

$GPGSV,3,1,11,01,,,16,03,,,18,04,,,21,05,43,066,36*47

$GPGSV,3,2,11,06,,,19,15,05,121,21,16,36,303,23,18,70,223,39*42

$GPGSV,3,3,11,24,,,22,26,49,269,32,29,53,112,42*73

$GNGLL,5550.94464,N,03732.61722,E,103412.00,A,A*79

$GNRMC,103413.00,A,5550.94465,N,03732.61834,E,0.135,,180425,,,A*65

$GNVTG,,T,,M,0.135,N,0.250,K,A*3D

$GNGGA,103413.00,5550.94465,N,03732.61834,E,1,04,2.98,173.8,M,13.3,M,,*4F

$GNGSA,A,3,29,18,26,05,,,,,,,,,4.57,2.98,3.47*1A

$GPGSV,3,1,11,01,,,14,03,,,16,04,,,20,05,43,066,32*4E

$GPGSV,3,2,11,06,,,17,15,05,121,20,16,36,303,23,18,70,223,41*42

$GPGSV,3,3,11,24,,,18,26,49,269,32,29,53,112,40*78

$GNGLL,5550.94465,N,03732.61834,E,103413.00,A,A*71

$GNRMC,103414.00,A,5550.94483,N,03732.61737,E,0.973,,180425,,,A*6C

$GNVTG,,T,,M,0.973,N,1.802,K,A*3B

$GNGGA,103414.00,5550.94483,N,03732.61737,E,1,04,2.98,174.1,M,13.3,M,,*42

$GNGSA,A,3,29,18,26,05,,,,,,,,,4.57,2.98,3.47*1A

$GPGSV,3,1,11,01,,,14,03,,,14,04,,,22,05,43,066,45*4E

$GPGSV,3,2,11,06,,,16,15,05,121,20,16,36,303,22,18,70,223,38*4C

$GPGSV,3,3,11,24,,,21,26,49,269,31,29,53,112,37*71

$GNGLL,5550.94483,N,03732.61737,E,103414.00,A,A*72

$GNRMC,103415.00,A,5550.94515,N,03732.61738,E,1.646,237.58,180425,,,A*71

$GNVTG,237.58,T,,M,1.646,N,3.048,K,A*22

$GNGGA,103415.00,5550.94515,N,03732.61738,E,1,04,2.98,173.4,M,13.3,M,,*40

$GNGSA,A,3,29,18,26,05,,,,,,,,,4.57,2.98,3.47*1A

$GPGSV,3,1,11,01,,,14,03,,,16,04,,,21,05,43,066,46*4C

